{
  "10001": {
    "lat": 39.097088,
    "lng": -75.502982,
    "name": "Kent County",
    "state": "DE"
  },
  "10003": {
    "lat": 39.575915,
    "lng": -75.644132,
    "name": "New Castle County",
    "state": "DE"
  },
  "10005": {
    "lat": 38.673227,
    "lng": -75.337024,
    "name": "Sussex County",
    "state": "DE"
  },
  "11001": {
    "lat": 38.904247,
    "lng": -77.016517,
    "name": "District of Columbia",
    "state": "DC"
  },
  "12001": {
    "lat": 29.67574,
    "lng": -82.357221,
    "name": "Alachua County",
    "state": "FL"
  },
  "12003": {
    "lat": 30.324442,
    "lng": -82.302284,
    "name": "Baker County",
    "state": "FL"
  },
  "12005": {
    "lat": 30.15914,
    "lng": -85.534395,
    "name": "Bay County",
    "state": "FL"
  },
  "12007": {
    "lat": 29.952386,
    "lng": -82.166698,
    "name": "Bradford County",
    "state": "FL"
  },
  "12009": {
    "lat": 28.298311,
    "lng": -80.700333,
    "name": "Brevard County",
    "state": "FL"
  },
  "12011": {
    "lat": 26.193535,
    "lng": -80.476683,
    "name": "Broward County",
    "state": "FL"
  },
  "12013": {
    "lat": 30.388801,
    "lng": -85.197915,
    "name": "Calhoun County",
    "state": "FL"
  },
  "12015": {
    "lat": 26.906396,
    "lng": -82.003657,
    "name": "Charlotte County",
    "state": "FL"
  },
  "12017": {
    "lat": 28.850292,
    "lng": -82.595552,
    "name": "Citrus County",
    "state": "FL"
  },
  "12019": {
    "lat": 29.986584,
    "lng": -81.865036,
    "name": "Clay County",
    "state": "FL"
  },
  "12021": {
    "lat": 26.118786,
    "lng": -81.400955,
    "name": "Collier County",
    "state": "FL"
  },
  "12023": {
    "lat": 30.221651,
    "lng": -82.623371,
    "name": "Columbia County",
    "state": "FL"
  },
  "12027": {
    "lat": 27.190581,
    "lng": -81.806253,
    "name": "DeSoto County",
    "state": "FL"
  },
  "12029": {
    "lat": 29.552675,
    "lng": -83.236232,
    "name": "Dixie County",
    "state": "FL"
  },
  "12031": {
    "lat": 30.335245,
    "lng": -81.648113,
    "name": "Duval County",
    "state": "FL"
  },
  "12033": {
    "lat": 30.529998,
    "lng": -87.320322,
    "name": "Escambia County",
    "state": "FL"
  },
  "12035": {
    "lat": 29.474891,
    "lng": -81.286253,
    "name": "Flagler County",
    "state": "FL"
  },
  "12037": {
    "lat": 29.677794,
    "lng": -84.815213,
    "name": "Franklin County",
    "state": "FL"
  },
  "12039": {
    "lat": 30.578687,
    "lng": -84.612607,
    "name": "Gadsden County",
    "state": "FL"
  },
  "12041": {
    "lat": 29.723456,
    "lng": -82.795801,
    "name": "Gilchrist County",
    "state": "FL"
  },
  "12043": {
    "lat": 26.95481,
    "lng": -81.19082,
    "name": "Glades County",
    "state": "FL"
  },
  "12045": {
    "lat": 29.859238,
    "lng": -85.272013,
    "name": "Gulf County",
    "state": "FL"
  },
  "12047": {
    "lat": 30.498438,
    "lng": -82.951116,
    "name": "Hamilton County",
    "state": "FL"
  },
  "12049": {
    "lat": 27.492846,
    "lng": -81.82158,
    "name": "Hardee County",
    "state": "FL"
  },
  "12051": {
    "lat": 26.539967,
    "lng": -81.152114,
    "name": "Hendry County",
    "state": "FL"
  },
  "12053": {
    "lat": 28.555995,
    "lng": -82.525969,
    "name": "Hernando County",
    "state": "FL"
  },
  "12055": {
    "lat": 27.34108,
    "lng": -81.342353,
    "name": "Highlands County",
    "state": "FL"
  },
  "12057": {
    "lat": 27.893154,
    "lng": -82.379991,
    "name": "Hillsborough County",
    "state": "FL"
  },
  "12059": {
    "lat": 30.862007,
    "lng": -85.815939,
    "name": "Holmes County",
    "state": "FL"
  },
  "12061": {
    "lat": 27.700528,
    "lng": -80.574789,
    "name": "Indian River County",
    "state": "FL"
  },
  "12063": {
    "lat": 30.789249,
    "lng": -85.208814,
    "name": "Jackson County",
    "state": "FL"
  },
  "12065": {
    "lat": 30.396898,
    "lng": -83.921761,
    "name": "Jefferson County",
    "state": "FL"
  },
  "12067": {
    "lat": 29.990066,
    "lng": -83.17851,
    "name": "Lafayette County",
    "state": "FL"
  },
  "12069": {
    "lat": 28.764113,
    "lng": -81.712282,
    "name": "Lake County",
    "state": "FL"
  },
  "12071": {
    "lat": 26.563273,
    "lng": -81.984182,
    "name": "Lee County",
    "state": "FL"
  },
  "12073": {
    "lat": 30.45931,
    "lng": -84.2778,
    "name": "Leon County",
    "state": "FL"
  },
  "12075": {
    "lat": 29.271854,
    "lng": -82.831233,
    "name": "Levy County",
    "state": "FL"
  },
  "12077": {
    "lat": 30.259849,
    "lng": -84.86858,
    "name": "Liberty County",
    "state": "FL"
  },
  "12079": {
    "lat": 30.447233,
    "lng": -83.470416,
    "name": "Madison County",
    "state": "FL"
  },
  "12081": {
    "lat": 27.475556,
    "lng": -82.393144,
    "name": "Manatee County",
    "state": "FL"
  },
  "12083": {
    "lat": 29.202805,
    "lng": -82.0431,
    "name": "Marion County",
    "state": "FL"
  },
  "12085": {
    "lat": 27.083604,
    "lng": -80.398201,
    "name": "Martin County",
    "state": "FL"
  },
  "12086": {
    "lat": 25.616009,
    "lng": -80.50375,
    "name": "Miami-Dade County",
    "state": "FL"
  },
  "12087": {
    "lat": 25.58612,
    "lng": -81.022603,
    "name": "Monroe County",
    "state": "FL"
  },
  "12089": {
    "lat": 30.605963,
    "lng": -81.765087,
    "name": "Nassau County",
    "state": "FL"
  },
  "12091": {
    "lat": 30.614325,
    "lng": -86.59108,
    "name": "Okaloosa County",
    "state": "FL"
  },
  "12093": {
    "lat": 27.385592,
    "lng": -80.887388,
    "name": "Okeechobee County",
    "state": "FL"
  },
  "12095": {
    "lat": 28.514391,
    "lng": -81.323284,
    "name": "Orange County",
    "state": "FL"
  },
  "12097": {
    "lat": 28.059027,
    "lng": -81.139312,
    "name": "Osceola County",
    "state": "FL"
  },
  "12099": {
    "lat": 26.649126,
    "lng": -80.448354,
    "name": "Palm Beach County",
    "state": "FL"
  },
  "12101": {
    "lat": 28.309823,
    "lng": -82.511006,
    "name": "Pasco County",
    "state": "FL"
  },
  "12103": {
    "lat": 27.905342,
    "lng": -82.798066,
    "name": "Pinellas County",
    "state": "FL"
  },
  "12105": {
    "lat": 27.953686,
    "lng": -81.693493,
    "name": "Polk County",
    "state": "FL"
  },
  "12107": {
    "lat": 29.593896,
    "lng": -81.732039,
    "name": "Putnam County",
    "state": "FL"
  },
  "12109": {
    "lat": 29.890487,
    "lng": -81.40004,
    "name": "St. Johns County",
    "state": "FL"
  },
  "12111": {
    "lat": 27.379814,
    "lng": -80.443536,
    "name": "St. Lucie County",
    "state": "FL"
  },
  "12113": {
    "lat": 30.675348,
    "lng": -87.018919,
    "name": "Santa Rosa County",
    "state": "FL"
  },
  "12115": {
    "lat": 27.225329,
    "lng": -82.423714,
    "name": "Sarasota County",
    "state": "FL"
  },
  "12117": {
    "lat": 28.690065,
    "lng": -81.131975,
    "name": "Seminole County",
    "state": "FL"
  },
  "12119": {
    "lat": 28.713326,
    "lng": -82.069522,
    "name": "Sumter County",
    "state": "FL"
  },
  "12121": {
    "lat": 30.189244,
    "lng": -82.992754,
    "name": "Suwannee County",
    "state": "FL"
  },
  "12123": {
    "lat": 29.967146,
    "lng": -83.639573,
    "name": "Taylor County",
    "state": "FL"
  },
  "12125": {
    "lat": 30.05428,
    "lng": -82.366918,
    "name": "Union County",
    "state": "FL"
  },
  "12127": {
    "lat": 29.057769,
    "lng": -81.161792,
    "name": "Volusia County",
    "state": "FL"
  },
  "12129": {
    "lat": 30.091335,
    "lng": -84.359111,
    "name": "Wakulla County",
    "state": "FL"
  },
  "12131": {
    "lat": 30.571247,
    "lng": -86.162798,
    "name": "Walton County",
    "state": "FL"
  },
  "12133": {
    "lat": 30.602102,
    "lng": -85.655805,
    "name": "Washington County",
    "state": "FL"
  },
  "13001": {
    "lat": 31.739726,
    "lng": -82.290102,
    "name": "Appling County",
    "state": "GA"
  },
  "13003": {
    "lat": 31.296806,
    "lng": -82.878151,
    "name": "Atkinson County",
    "state": "GA"
  },
  "13005": {
    "lat": 31.55021,
    "lng": -82.451433,
    "name": "Bacon County",
    "state": "GA"
  },
  "13007": {
    "lat": 31.31958,
    "lng": -84.454881,
    "name": "Baker County",
    "state": "GA"
  },
  "13009": {
    "lat": 33.05949,
    "lng": -83.255457,
    "name": "Baldwin County",
    "state": "GA"
  },
  "13011": {
    "lat": 34.351922,
    "lng": -83.498441,
    "name": "Banks County",
    "state": "GA"
  },
  "13013": {
    "lat": 33.992009,
    "lng": -83.712303,
    "name": "Barrow County",
    "state": "GA"
  },
  "13015": {
    "lat": 34.240917,
    "lng": -84.838188,
    "name": "Bartow County",
    "state": "GA"
  },
  "13017": {
    "lat": 31.740772,
    "lng": -83.147197,
    "name": "Ben Hill County",
    "state": "GA"
  },
  "13019": {
    "lat": 31.288652,
    "lng": -83.22787,
    "name": "Berrien County",
    "state": "GA"
  },
  "13021": {
    "lat": 32.80899,
    "lng": -83.69406,
    "name": "Bibb County",
    "state": "GA"
  },
  "13023": {
    "lat": 32.435403,
    "lng": -83.331717,
    "name": "Bleckley County",
    "state": "GA"
  },
  "13025": {
    "lat": 31.197334,
    "lng": -81.982978,
    "name": "Brantley County",
    "state": "GA"
  },
  "13027": {
    "lat": 30.822934,
    "lng": -83.581905,
    "name": "Brooks County",
    "state": "GA"
  },
  "13029": {
    "lat": 32.017969,
    "lng": -81.438543,
    "name": "Bryan County",
    "state": "GA"
  },
  "13031": {
    "lat": 32.394498,
    "lng": -81.741449,
    "name": "Bulloch County",
    "state": "GA"
  },
  "13033": {
    "lat": 33.060181,
    "lng": -82.000164,
    "name": "Burke County",
    "state": "GA"
  },
  "13035": {
    "lat": 33.290355,
    "lng": -83.958221,
    "name": "Butts County",
    "state": "GA"
  },
  "13037": {
    "lat": 31.521279,
    "lng": -84.62629,
    "name": "Calhoun County",
    "state": "GA"
  },
  "13039": {
    "lat": 30.913358,
    "lng": -81.642019,
    "name": "Camden County",
    "state": "GA"
  },
  "13043": {
    "lat": 32.40395,
    "lng": -82.071266,
    "name": "Candler County",
    "state": "GA"
  },
  "13045": {
    "lat": 33.582237,
    "lng": -85.080527,
    "name": "Carroll County",
    "state": "GA"
  },
  "13047": {
    "lat": 34.900212,
    "lng": -85.139385,
    "name": "Catoosa County",
    "state": "GA"
  },
  "13049": {
    "lat": 30.779904,
    "lng": -82.139644,
    "name": "Charlton County",
    "state": "GA"
  },
  "13051": {
    "lat": 31.980404,
    "lng": -81.085184,
    "name": "Chatham County",
    "state": "GA"
  },
  "13053": {
    "lat": 32.347445,
    "lng": -84.788021,
    "name": "Chattahoochee County",
    "state": "GA"
  },
  "13055": {
    "lat": 34.474178,
    "lng": -85.345289,
    "name": "Chattooga County",
    "state": "GA"
  },
  "13057": {
    "lat": 34.244317,
    "lng": -84.475057,
    "name": "Cherokee County",
    "state": "GA"
  },
  "13059": {
    "lat": 33.952185,
    "lng": -83.367152,
    "name": "Clarke County",
    "state": "GA"
  },
  "13061": {
    "lat": 31.619831,
    "lng": -84.992583,
    "name": "Clay County",
    "state": "GA"
  },
  "13063": {
    "lat": 33.552242,
    "lng": -84.412973,
    "name": "Clayton County",
    "state": "GA"
  },
  "13065": {
    "lat": 30.917653,
    "lng": -82.702614,
    "name": "Clinch County",
    "state": "GA"
  },
  "13067": {
    "lat": 33.939926,
    "lng": -84.57411,
    "name": "Cobb County",
    "state": "GA"
  },
  "13069": {
    "lat": 31.549245,
    "lng": -82.84494,
    "name": "Coffee County",
    "state": "GA"
  },
  "13071": {
    "lat": 31.189707,
    "lng": -83.769773,
    "name": "Colquitt County",
    "state": "GA"
  },
  "13073": {
    "lat": 33.552075,
    "lng": -82.249608,
    "name": "Columbia County",
    "state": "GA"
  },
  "13075": {
    "lat": 31.152516,
    "lng": -83.429445,
    "name": "Cook County",
    "state": "GA"
  },
  "13077": {
    "lat": 33.352897,
    "lng": -84.762138,
    "name": "Coweta County",
    "state": "GA"
  },
  "13079": {
    "lat": 32.709448,
    "lng": -83.979168,
    "name": "Crawford County",
    "state": "GA"
  },
  "13081": {
    "lat": 31.920268,
    "lng": -83.75653,
    "name": "Crisp County",
    "state": "GA"
  },
  "13083": {
    "lat": 34.852424,
    "lng": -85.506201,
    "name": "Dade County",
    "state": "GA"
  },
  "13085": {
    "lat": 34.442608,
    "lng": -84.173261,
    "name": "Dawson County",
    "state": "GA"
  },
  "13087": {
    "lat": 30.880643,
    "lng": -84.58389,
    "name": "Decatur County",
    "state": "GA"
  },
  "13089": {
    "lat": 33.770661,
    "lng": -84.226343,
    "name": "DeKalb County",
    "state": "GA"
  },
  "13091": {
    "lat": 32.164369,
    "lng": -83.167866,
    "name": "Dodge County",
    "state": "GA"
  },
  "13093": {
    "lat": 32.151995,
    "lng": -83.807167,
    "name": "Dooly County",
    "state": "GA"
  },
  "13095": {
    "lat": 31.532588,
    "lng": -84.20904,
    "name": "Dougherty County",
    "state": "GA"
  },
  "13097": {
    "lat": 33.701242,
    "lng": -84.767314,
    "name": "Douglas County",
    "state": "GA"
  },
  "13099": {
    "lat": 31.324191,
    "lng": -84.906723,
    "name": "Early County",
    "state": "GA"
  },
  "13101": {
    "lat": 30.714008,
    "lng": -82.897376,
    "name": "Echols County",
    "state": "GA"
  },
  "13103": {
    "lat": 32.361688,
    "lng": -81.343355,
    "name": "Effingham County",
    "state": "GA"
  },
  "13105": {
    "lat": 34.116415,
    "lng": -82.841892,
    "name": "Elbert County",
    "state": "GA"
  },
  "13107": {
    "lat": 32.5912,
    "lng": -82.300195,
    "name": "Emanuel County",
    "state": "GA"
  },
  "13109": {
    "lat": 32.153083,
    "lng": -81.890153,
    "name": "Evans County",
    "state": "GA"
  },
  "13111": {
    "lat": 34.866543,
    "lng": -84.317331,
    "name": "Fannin County",
    "state": "GA"
  },
  "13113": {
    "lat": 33.412717,
    "lng": -84.493941,
    "name": "Fayette County",
    "state": "GA"
  },
  "13115": {
    "lat": 34.26369,
    "lng": -85.213685,
    "name": "Floyd County",
    "state": "GA"
  },
  "13117": {
    "lat": 34.225143,
    "lng": -84.127408,
    "name": "Forsyth County",
    "state": "GA"
  },
  "13119": {
    "lat": 34.375266,
    "lng": -83.227532,
    "name": "Franklin County",
    "state": "GA"
  },
  "13121": {
    "lat": 33.790034,
    "lng": -84.468182,
    "name": "Fulton County",
    "state": "GA"
  },
  "13123": {
    "lat": 34.690523,
    "lng": -84.454811,
    "name": "Gilmer County",
    "state": "GA"
  },
  "13125": {
    "lat": 33.227491,
    "lng": -82.606913,
    "name": "Glascock County",
    "state": "GA"
  },
  "13127": {
    "lat": 31.21271,
    "lng": -81.49645,
    "name": "Glynn County",
    "state": "GA"
  },
  "13129": {
    "lat": 34.509667,
    "lng": -84.873862,
    "name": "Gordon County",
    "state": "GA"
  },
  "13131": {
    "lat": 30.8759,
    "lng": -84.244965,
    "name": "Grady County",
    "state": "GA"
  },
  "13133": {
    "lat": 33.576704,
    "lng": -83.166625,
    "name": "Greene County",
    "state": "GA"
  },
  "13135": {
    "lat": 33.958756,
    "lng": -84.025735,
    "name": "Gwinnett County",
    "state": "GA"
  },
  "13137": {
    "lat": 34.634392,
    "lng": -83.525875,
    "name": "Habersham County",
    "state": "GA"
  },
  "13139": {
    "lat": 34.317569,
    "lng": -83.8185,
    "name": "Hall County",
    "state": "GA"
  },
  "13141": {
    "lat": 33.26922,
    "lng": -83.000465,
    "name": "Hancock County",
    "state": "GA"
  },
  "13143": {
    "lat": 33.795165,
    "lng": -85.220063,
    "name": "Haralson County",
    "state": "GA"
  },
  "13145": {
    "lat": 32.731549,
    "lng": -84.912432,
    "name": "Harris County",
    "state": "GA"
  },
  "13147": {
    "lat": 34.348733,
    "lng": -82.96329,
    "name": "Hart County",
    "state": "GA"
  },
  "13149": {
    "lat": 33.291347,
    "lng": -85.137886,
    "name": "Heard County",
    "state": "GA"
  },
  "13151": {
    "lat": 33.452947,
    "lng": -84.154021,
    "name": "Henry County",
    "state": "GA"
  },
  "13153": {
    "lat": 32.458147,
    "lng": -83.662309,
    "name": "Houston County",
    "state": "GA"
  },
  "13155": {
    "lat": 31.604306,
    "lng": -83.277037,
    "name": "Irwin County",
    "state": "GA"
  },
  "13157": {
    "lat": 34.130905,
    "lng": -83.562557,
    "name": "Jackson County",
    "state": "GA"
  },
  "13159": {
    "lat": 33.316981,
    "lng": -83.689151,
    "name": "Jasper County",
    "state": "GA"
  },
  "13161": {
    "lat": 31.811615,
    "lng": -82.636825,
    "name": "Jeff Davis County",
    "state": "GA"
  },
  "13163": {
    "lat": 33.058176,
    "lng": -82.420004,
    "name": "Jefferson County",
    "state": "GA"
  },
  "13165": {
    "lat": 32.794563,
    "lng": -81.971524,
    "name": "Jenkins County",
    "state": "GA"
  },
  "13167": {
    "lat": 32.694584,
    "lng": -82.66397,
    "name": "Johnson County",
    "state": "GA"
  },
  "13169": {
    "lat": 33.021664,
    "lng": -83.562196,
    "name": "Jones County",
    "state": "GA"
  },
  "13171": {
    "lat": 33.07444,
    "lng": -84.146689,
    "name": "Lamar County",
    "state": "GA"
  },
  "13173": {
    "lat": 31.038197,
    "lng": -83.063164,
    "name": "Lanier County",
    "state": "GA"
  },
  "13175": {
    "lat": 32.39322,
    "lng": -82.926317,
    "name": "Laurens County",
    "state": "GA"
  },
  "13177": {
    "lat": 31.818419,
    "lng": -84.146681,
    "name": "Lee County",
    "state": "GA"
  },
  "13179": {
    "lat": 31.807458,
    "lng": -81.457871,
    "name": "Liberty County",
    "state": "GA"
  },
  "13181": {
    "lat": 33.792151,
    "lng": -82.448299,
    "name": "Lincoln County",
    "state": "GA"
  },
  "13183": {
    "lat": 31.749563,
    "lng": -81.74287,
    "name": "Long County",
    "state": "GA"
  },
  "13185": {
    "lat": 30.833145,
    "lng": -83.268995,
    "name": "Lowndes County",
    "state": "GA"
  },
  "13187": {
    "lat": 34.56814,
    "lng": -83.998925,
    "name": "Lumpkin County",
    "state": "GA"
  },
  "13189": {
    "lat": 33.48061,
    "lng": -82.479572,
    "name": "McDuffie County",
    "state": "GA"
  },
  "13191": {
    "lat": 31.485629,
    "lng": -81.372141,
    "name": "McIntosh County",
    "state": "GA"
  },
  "13193": {
    "lat": 32.362686,
    "lng": -84.051231,
    "name": "Macon County",
    "state": "GA"
  },
  "13195": {
    "lat": 34.12748,
    "lng": -83.208653,
    "name": "Madison County",
    "state": "GA"
  },
  "13197": {
    "lat": 32.359312,
    "lng": -84.528735,
    "name": "Marion County",
    "state": "GA"
  },
  "13199": {
    "lat": 33.029267,
    "lng": -84.667058,
    "name": "Meriwether County",
    "state": "GA"
  },
  "13201": {
    "lat": 31.162931,
    "lng": -84.730398,
    "name": "Miller County",
    "state": "GA"
  },
  "13205": {
    "lat": 31.228997,
    "lng": -84.192038,
    "name": "Mitchell County",
    "state": "GA"
  },
  "13207": {
    "lat": 33.018784,
    "lng": -83.921837,
    "name": "Monroe County",
    "state": "GA"
  },
  "13209": {
    "lat": 32.172108,
    "lng": -82.533349,
    "name": "Montgomery County",
    "state": "GA"
  },
  "13211": {
    "lat": 33.598649,
    "lng": -83.499416,
    "name": "Morgan County",
    "state": "GA"
  },
  "13213": {
    "lat": 34.797097,
    "lng": -84.73799,
    "name": "Murray County",
    "state": "GA"
  },
  "13215": {
    "lat": 32.510191,
    "lng": -84.874946,
    "name": "Muscogee County",
    "state": "GA"
  },
  "13217": {
    "lat": 33.552751,
    "lng": -83.85136,
    "name": "Newton County",
    "state": "GA"
  },
  "13219": {
    "lat": 33.834125,
    "lng": -83.437728,
    "name": "Oconee County",
    "state": "GA"
  },
  "13221": {
    "lat": 33.866806,
    "lng": -83.074081,
    "name": "Oglethorpe County",
    "state": "GA"
  },
  "13223": {
    "lat": 33.92103,
    "lng": -84.867169,
    "name": "Paulding County",
    "state": "GA"
  },
  "13225": {
    "lat": 32.571324,
    "lng": -83.831978,
    "name": "Peach County",
    "state": "GA"
  },
  "13227": {
    "lat": 34.456756,
    "lng": -84.490366,
    "name": "Pickens County",
    "state": "GA"
  },
  "13229": {
    "lat": 31.353998,
    "lng": -82.21037,
    "name": "Pierce County",
    "state": "GA"
  },
  "13231": {
    "lat": 33.081149,
    "lng": -84.389462,
    "name": "Pike County",
    "state": "GA"
  },
  "13233": {
    "lat": 33.996015,
    "lng": -85.188338,
    "name": "Polk County",
    "state": "GA"
  },
  "13235": {
    "lat": 32.238803,
    "lng": -83.481845,
    "name": "Pulaski County",
    "state": "GA"
  },
  "13237": {
    "lat": 33.32106,
    "lng": -83.37179,
    "name": "Putnam County",
    "state": "GA"
  },
  "13239": {
    "lat": 31.862938,
    "lng": -85.004798,
    "name": "Quitman County",
    "state": "GA"
  },
  "13241": {
    "lat": 34.883934,
    "lng": -83.40487,
    "name": "Rabun County",
    "state": "GA"
  },
  "13243": {
    "lat": 31.762651,
    "lng": -84.752311,
    "name": "Randolph County",
    "state": "GA"
  },
  "13245": {
    "lat": 33.361486,
    "lng": -82.074998,
    "name": "Richmond County",
    "state": "GA"
  },
  "13247": {
    "lat": 33.652081,
    "lng": -84.02637,
    "name": "Rockdale County",
    "state": "GA"
  },
  "13249": {
    "lat": 32.263444,
    "lng": -84.322708,
    "name": "Schley County",
    "state": "GA"
  },
  "13251": {
    "lat": 32.744751,
    "lng": -81.617585,
    "name": "Screven County",
    "state": "GA"
  },
  "13253": {
    "lat": 30.93396,
    "lng": -84.867685,
    "name": "Seminole County",
    "state": "GA"
  },
  "13255": {
    "lat": 33.262348,
    "lng": -84.284905,
    "name": "Spalding County",
    "state": "GA"
  },
  "13257": {
    "lat": 34.553582,
    "lng": -83.290588,
    "name": "Stephens County",
    "state": "GA"
  },
  "13259": {
    "lat": 32.073225,
    "lng": -84.834912,
    "name": "Stewart County",
    "state": "GA"
  },
  "13261": {
    "lat": 32.042266,
    "lng": -84.204294,
    "name": "Sumter County",
    "state": "GA"
  },
  "13263": {
    "lat": 32.704603,
    "lng": -84.530029,
    "name": "Talbot County",
    "state": "GA"
  },
  "13265": {
    "lat": 33.559319,
    "lng": -82.875272,
    "name": "Taliaferro County",
    "state": "GA"
  },
  "13267": {
    "lat": 32.043768,
    "lng": -82.059208,
    "name": "Tattnall County",
    "state": "GA"
  },
  "13269": {
    "lat": 32.554667,
    "lng": -84.251426,
    "name": "Taylor County",
    "state": "GA"
  },
  "13271": {
    "lat": 31.913641,
    "lng": -82.931063,
    "name": "Telfair County",
    "state": "GA"
  },
  "13273": {
    "lat": 31.777191,
    "lng": -84.439446,
    "name": "Terrell County",
    "state": "GA"
  },
  "13275": {
    "lat": 30.864619,
    "lng": -83.919815,
    "name": "Thomas County",
    "state": "GA"
  },
  "13277": {
    "lat": 31.457003,
    "lng": -83.525931,
    "name": "Tift County",
    "state": "GA"
  },
  "13279": {
    "lat": 32.117753,
    "lng": -82.330597,
    "name": "Toombs County",
    "state": "GA"
  },
  "13281": {
    "lat": 34.902529,
    "lng": -83.732264,
    "name": "Towns County",
    "state": "GA"
  },
  "13283": {
    "lat": 32.409586,
    "lng": -82.570882,
    "name": "Treutlen County",
    "state": "GA"
  },
  "13285": {
    "lat": 33.034482,
    "lng": -85.02836,
    "name": "Troup County",
    "state": "GA"
  },
  "13287": {
    "lat": 31.7248,
    "lng": -83.620319,
    "name": "Turner County",
    "state": "GA"
  },
  "13289": {
    "lat": 32.665847,
    "lng": -83.425879,
    "name": "Twiggs County",
    "state": "GA"
  },
  "13291": {
    "lat": 34.833333,
    "lng": -83.989257,
    "name": "Union County",
    "state": "GA"
  },
  "13293": {
    "lat": 32.881837,
    "lng": -84.292283,
    "name": "Upson County",
    "state": "GA"
  },
  "13295": {
    "lat": 34.735802,
    "lng": -85.305456,
    "name": "Walker County",
    "state": "GA"
  },
  "13297": {
    "lat": 33.783887,
    "lng": -83.731829,
    "name": "Walton County",
    "state": "GA"
  },
  "13299": {
    "lat": 31.050881,
    "lng": -82.421507,
    "name": "Ware County",
    "state": "GA"
  },
  "13301": {
    "lat": 33.408381,
    "lng": -82.675685,
    "name": "Warren County",
    "state": "GA"
  },
  "13303": {
    "lat": 32.971843,
    "lng": -82.798112,
    "name": "Washington County",
    "state": "GA"
  },
  "13305": {
    "lat": 31.547845,
    "lng": -81.912376,
    "name": "Wayne County",
    "state": "GA"
  },
  "13307": {
    "lat": 32.046691,
    "lng": -84.553828,
    "name": "Webster County",
    "state": "GA"
  },
  "13309": {
    "lat": 32.105258,
    "lng": -82.733849,
    "name": "Wheeler County",
    "state": "GA"
  },
  "13311": {
    "lat": 34.644182,
    "lng": -83.743,
    "name": "White County",
    "state": "GA"
  },
  "13313": {
    "lat": 34.801726,
    "lng": -84.968541,
    "name": "Whitfield County",
    "state": "GA"
  },
  "13315": {
    "lat": 31.96272,
    "lng": -83.438259,
    "name": "Wilcox County",
    "state": "GA"
  },
  "13317": {
    "lat": 33.779031,
    "lng": -82.747921,
    "name": "Wilkes County",
    "state": "GA"
  },
  "13319": {
    "lat": 32.804266,
    "lng": -83.175512,
    "name": "Wilkinson County",
    "state": "GA"
  },
  "13321": {
    "lat": 31.551773,
    "lng": -83.84996,
    "name": "Worth County",
    "state": "GA"
  },
  "15001": {
    "lat": 19.597764,
    "lng": -155.502443,
    "name": "Hawaii County",
    "state": "HI"
  },
  "15003": {
    "lat": 21.461365,
    "lng": -158.201974,
    "name": "Honolulu County",
    "state": "HI"
  },
  "15005": {
    "lat": 21.218764,
    "lng": -156.97401,
    "name": "Kalawao County",
    "state": "HI"
  },
  "15007": {
    "lat": 22.012038,
    "lng": -159.705965,
    "name": "Kauai County",
    "state": "HI"
  },
  "15009": {
    "lat": 20.855931,
    "lng": -156.60155,
    "name": "Maui County",
    "state": "HI"
  },
  "16001": {
    "lat": 43.451476,
    "lng": -116.244376,
    "name": "Ada County",
    "state": "ID"
  },
  "16003": {
    "lat": 44.876955,
    "lng": -116.461614,
    "name": "Adams County",
    "state": "ID"
  },
  "16005": {
    "lat": 42.692921,
    "lng": -112.228982,
    "name": "Bannock County",
    "state": "ID"
  },
  "16007": {
    "lat": 42.285892,
    "lng": -111.327517,
    "name": "Bear Lake County",
    "state": "ID"
  },
  "16009": {
    "lat": 47.218451,
    "lng": -116.633541,
    "name": "Benewah County",
    "state": "ID"
  },
  "16011": {
    "lat": 43.216357,
    "lng": -112.399206,
    "name": "Bingham County",
    "state": "ID"
  },
  "16013": {
    "lat": 43.394192,
    "lng": -113.955371,
    "name": "Blaine County",
    "state": "ID"
  },
  "16015": {
    "lat": 43.987275,
    "lng": -115.71511,
    "name": "Boise County",
    "state": "ID"
  },
  "16017": {
    "lat": 48.324634,
    "lng": -116.62745,
    "name": "Bonner County",
    "state": "ID"
  },
  "16019": {
    "lat": 43.395171,
    "lng": -111.621878,
    "name": "Bonneville County",
    "state": "ID"
  },
  "16021": {
    "lat": 48.773131,
    "lng": -116.524668,
    "name": "Boundary County",
    "state": "ID"
  },
  "16023": {
    "lat": 43.685101,
    "lng": -113.177631,
    "name": "Butte County",
    "state": "ID"
  },
  "16025": {
    "lat": 43.502552,
    "lng": -114.772135,
    "name": "Camas County",
    "state": "ID"
  },
  "16027": {
    "lat": 43.625795,
    "lng": -116.709058,
    "name": "Canyon County",
    "state": "ID"
  },
  "16029": {
    "lat": 42.786072,
    "lng": -111.544273,
    "name": "Caribou County",
    "state": "ID"
  },
  "16031": {
    "lat": 42.282313,
    "lng": -113.626328,
    "name": "Cassia County",
    "state": "ID"
  },
  "16033": {
    "lat": 44.290218,
    "lng": -112.354613,
    "name": "Clark County",
    "state": "ID"
  },
  "16035": {
    "lat": 46.67257,
    "lng": -115.6535,
    "name": "Clearwater County",
    "state": "ID"
  },
  "16037": {
    "lat": 44.273351,
    "lng": -114.252267,
    "name": "Custer County",
    "state": "ID"
  },
  "16039": {
    "lat": 43.394698,
    "lng": -115.471205,
    "name": "Elmore County",
    "state": "ID"
  },
  "16041": {
    "lat": 42.173609,
    "lng": -111.822965,
    "name": "Franklin County",
    "state": "ID"
  },
  "16043": {
    "lat": 44.218091,
    "lng": -111.484429,
    "name": "Fremont County",
    "state": "ID"
  },
  "16045": {
    "lat": 44.061473,
    "lng": -116.398784,
    "name": "Gem County",
    "state": "ID"
  },
  "16047": {
    "lat": 42.973185,
    "lng": -114.82142,
    "name": "Gooding County",
    "state": "ID"
  },
  "16049": {
    "lat": 45.849644,
    "lng": -115.467337,
    "name": "Idaho County",
    "state": "ID"
  },
  "16051": {
    "lat": 43.796965,
    "lng": -112.318588,
    "name": "Jefferson County",
    "state": "ID"
  },
  "16053": {
    "lat": 42.691395,
    "lng": -114.262086,
    "name": "Jerome County",
    "state": "ID"
  },
  "16055": {
    "lat": 47.675957,
    "lng": -116.695919,
    "name": "Kootenai County",
    "state": "ID"
  },
  "16057": {
    "lat": 46.81892,
    "lng": -116.730974,
    "name": "Latah County",
    "state": "ID"
  },
  "16059": {
    "lat": 44.928506,
    "lng": -113.887042,
    "name": "Lemhi County",
    "state": "ID"
  },
  "16061": {
    "lat": 46.236328,
    "lng": -116.42376,
    "name": "Lewis County",
    "state": "ID"
  },
  "16063": {
    "lat": 42.990782,
    "lng": -114.153089,
    "name": "Lincoln County",
    "state": "ID"
  },
  "16065": {
    "lat": 43.788614,
    "lng": -111.656993,
    "name": "Madison County",
    "state": "ID"
  },
  "16067": {
    "lat": 42.857211,
    "lng": -113.63984,
    "name": "Minidoka County",
    "state": "ID"
  },
  "16069": {
    "lat": 46.333791,
    "lng": -116.760909,
    "name": "Nez Perce County",
    "state": "ID"
  },
  "16071": {
    "lat": 42.183895,
    "lng": -112.520449,
    "name": "Oneida County",
    "state": "ID"
  },
  "16073": {
    "lat": 42.572851,
    "lng": -116.18969,
    "name": "Owyhee County",
    "state": "ID"
  },
  "16075": {
    "lat": 44.00243,
    "lng": -116.750238,
    "name": "Payette County",
    "state": "ID"
  },
  "16077": {
    "lat": 42.694126,
    "lng": -112.844407,
    "name": "Power County",
    "state": "ID"
  },
  "16079": {
    "lat": 47.347694,
    "lng": -115.885092,
    "name": "Shoshone County",
    "state": "ID"
  },
  "16081": {
    "lat": 43.760994,
    "lng": -111.211765,
    "name": "Teton County",
    "state": "ID"
  },
  "16083": {
    "lat": 42.352309,
    "lng": -114.665639,
    "name": "Twin Falls County",
    "state": "ID"
  },
  "16085": {
    "lat": 44.85596,
    "lng": -115.618061,
    "name": "Valley County",
    "state": "ID"
  },
  "16087": {
    "lat": 44.448223,
    "lng": -116.797792,
    "name": "Washington County",
    "state": "ID"
  },
  "17001": {
    "lat": 39.986052,
    "lng": -91.194961,
    "name": "Adams County",
    "state": "IL"
  },
  "17003": {
    "lat": 37.183658,
    "lng": -89.349516,
    "name": "Alexander County",
    "state": "IL"
  },
  "17005": {
    "lat": 38.885924,
    "lng": -89.436592,
    "name": "Bond County",
    "state": "IL"
  },
  "17007": {
    "lat": 42.318983,
    "lng": -88.824295,
    "name": "Boone County",
    "state": "IL"
  },
  "17009": {
    "lat": 39.962069,
    "lng": -90.750309,
    "name": "Brown County",
    "state": "IL"
  },
  "17011": {
    "lat": 41.401304,
    "lng": -89.528377,
    "name": "Bureau County",
    "state": "IL"
  },
  "17013": {
    "lat": 39.164262,
    "lng": -90.666295,
    "name": "Calhoun County",
    "state": "IL"
  },
  "17015": {
    "lat": 42.0709,
    "lng": -89.924189,
    "name": "Carroll County",
    "state": "IL"
  },
  "17017": {
    "lat": 39.969202,
    "lng": -90.245704,
    "name": "Cass County",
    "state": "IL"
  },
  "17019": {
    "lat": 40.138985,
    "lng": -88.196975,
    "name": "Champaign County",
    "state": "IL"
  },
  "17021": {
    "lat": 39.545524,
    "lng": -89.279593,
    "name": "Christian County",
    "state": "IL"
  },
  "17023": {
    "lat": 39.332334,
    "lng": -87.791683,
    "name": "Clark County",
    "state": "IL"
  },
  "17025": {
    "lat": 38.746819,
    "lng": -88.482325,
    "name": "Clay County",
    "state": "IL"
  },
  "17027": {
    "lat": 38.606295,
    "lng": -89.426228,
    "name": "Clinton County",
    "state": "IL"
  },
  "17029": {
    "lat": 39.51368,
    "lng": -88.220782,
    "name": "Coles County",
    "state": "IL"
  },
  "17031": {
    "lat": 41.894294,
    "lng": -87.645455,
    "name": "Cook County",
    "state": "IL"
  },
  "17033": {
    "lat": 39.002787,
    "lng": -87.760619,
    "name": "Crawford County",
    "state": "IL"
  },
  "17035": {
    "lat": 39.273121,
    "lng": -88.240619,
    "name": "Cumberland County",
    "state": "IL"
  },
  "17037": {
    "lat": 41.894612,
    "lng": -88.768991,
    "name": "DeKalb County",
    "state": "IL"
  },
  "17039": {
    "lat": 40.181499,
    "lng": -88.901853,
    "name": "De Witt County",
    "state": "IL"
  },
  "17041": {
    "lat": 39.766078,
    "lng": -88.222866,
    "name": "Douglas County",
    "state": "IL"
  },
  "17043": {
    "lat": 41.852058,
    "lng": -88.086039,
    "name": "DuPage County",
    "state": "IL"
  },
  "17045": {
    "lat": 39.679037,
    "lng": -87.74711,
    "name": "Edgar County",
    "state": "IL"
  },
  "17047": {
    "lat": 38.417095,
    "lng": -88.047941,
    "name": "Edwards County",
    "state": "IL"
  },
  "17049": {
    "lat": 39.047945,
    "lng": -88.592849,
    "name": "Effingham County",
    "state": "IL"
  },
  "17051": {
    "lat": 39.001125,
    "lng": -89.017923,
    "name": "Fayette County",
    "state": "IL"
  },
  "17053": {
    "lat": 40.596539,
    "lng": -88.224588,
    "name": "Ford County",
    "state": "IL"
  },
  "17055": {
    "lat": 37.991852,
    "lng": -88.926321,
    "name": "Franklin County",
    "state": "IL"
  },
  "17057": {
    "lat": 40.46524,
    "lng": -90.202269,
    "name": "Fulton County",
    "state": "IL"
  },
  "17059": {
    "lat": 37.768677,
    "lng": -88.227964,
    "name": "Gallatin County",
    "state": "IL"
  },
  "17061": {
    "lat": 39.355439,
    "lng": -90.387682,
    "name": "Greene County",
    "state": "IL"
  },
  "17063": {
    "lat": 41.29241,
    "lng": -88.401054,
    "name": "Grundy County",
    "state": "IL"
  },
  "17065": {
    "lat": 38.085227,
    "lng": -88.539009,
    "name": "Hamilton County",
    "state": "IL"
  },
  "17067": {
    "lat": 40.401318,
    "lng": -91.168801,
    "name": "Hancock County",
    "state": "IL"
  },
  "17069": {
    "lat": 37.517852,
    "lng": -88.266148,
    "name": "Hardin County",
    "state": "IL"
  },
  "17071": {
    "lat": 40.814471,
    "lng": -90.941246,
    "name": "Henderson County",
    "state": "IL"
  },
  "17073": {
    "lat": 41.350021,
    "lng": -90.130838,
    "name": "Henry County",
    "state": "IL"
  },
  "17075": {
    "lat": 40.748867,
    "lng": -87.833601,
    "name": "Iroquois County",
    "state": "IL"
  },
  "17077": {
    "lat": 37.786096,
    "lng": -89.381212,
    "name": "Jackson County",
    "state": "IL"
  },
  "17079": {
    "lat": 39.004886,
    "lng": -88.150725,
    "name": "Jasper County",
    "state": "IL"
  },
  "17081": {
    "lat": 38.30078,
    "lng": -88.92421,
    "name": "Jefferson County",
    "state": "IL"
  },
  "17083": {
    "lat": 39.080195,
    "lng": -90.361385,
    "name": "Jersey County",
    "state": "IL"
  },
  "17085": {
    "lat": 42.362391,
    "lng": -90.21147,
    "name": "Jo Daviess County",
    "state": "IL"
  },
  "17087": {
    "lat": 37.460709,
    "lng": -88.882131,
    "name": "Johnson County",
    "state": "IL"
  },
  "17089": {
    "lat": 41.939594,
    "lng": -88.42804,
    "name": "Kane County",
    "state": "IL"
  },
  "17091": {
    "lat": 41.13951,
    "lng": -87.861117,
    "name": "Kankakee County",
    "state": "IL"
  },
  "17093": {
    "lat": 41.58814,
    "lng": -88.430626,
    "name": "Kendall County",
    "state": "IL"
  },
  "17095": {
    "lat": 40.930945,
    "lng": -90.213792,
    "name": "Knox County",
    "state": "IL"
  },
  "17097": {
    "lat": 42.185968,
    "lng": -87.805939,
    "name": "Lake County",
    "state": "IL"
  },
  "17099": {
    "lat": 41.343341,
    "lng": -88.885931,
    "name": "LaSalle County",
    "state": "IL"
  },
  "17101": {
    "lat": 38.718954,
    "lng": -87.730221,
    "name": "Lawrence County",
    "state": "IL"
  },
  "17103": {
    "lat": 41.747447,
    "lng": -89.299362,
    "name": "Lee County",
    "state": "IL"
  },
  "17105": {
    "lat": 40.894376,
    "lng": -88.552852,
    "name": "Livingston County",
    "state": "IL"
  },
  "17107": {
    "lat": 40.129277,
    "lng": -89.365309,
    "name": "Logan County",
    "state": "IL"
  },
  "17109": {
    "lat": 40.455808,
    "lng": -90.678954,
    "name": "McDonough County",
    "state": "IL"
  },
  "17111": {
    "lat": 42.324298,
    "lng": -88.452245,
    "name": "McHenry County",
    "state": "IL"
  },
  "17113": {
    "lat": 40.494559,
    "lng": -88.844539,
    "name": "McLean County",
    "state": "IL"
  },
  "17115": {
    "lat": 39.860237,
    "lng": -88.961529,
    "name": "Macon County",
    "state": "IL"
  },
  "17117": {
    "lat": 39.265914,
    "lng": -89.92633,
    "name": "Macoupin County",
    "state": "IL"
  },
  "17119": {
    "lat": 38.82712,
    "lng": -89.900227,
    "name": "Madison County",
    "state": "IL"
  },
  "17121": {
    "lat": 38.648236,
    "lng": -88.920362,
    "name": "Marion County",
    "state": "IL"
  },
  "17123": {
    "lat": 41.031119,
    "lng": -89.342371,
    "name": "Marshall County",
    "state": "IL"
  },
  "17125": {
    "lat": 40.236993,
    "lng": -89.913575,
    "name": "Mason County",
    "state": "IL"
  },
  "17127": {
    "lat": 37.216119,
    "lng": -88.705658,
    "name": "Massac County",
    "state": "IL"
  },
  "17129": {
    "lat": 40.022569,
    "lng": -89.794133,
    "name": "Menard County",
    "state": "IL"
  },
  "17131": {
    "lat": 41.205605,
    "lng": -90.74177,
    "name": "Mercer County",
    "state": "IL"
  },
  "17133": {
    "lat": 38.277983,
    "lng": -90.179078,
    "name": "Monroe County",
    "state": "IL"
  },
  "17135": {
    "lat": 39.228068,
    "lng": -89.478141,
    "name": "Montgomery County",
    "state": "IL"
  },
  "17137": {
    "lat": 39.717657,
    "lng": -90.204993,
    "name": "Morgan County",
    "state": "IL"
  },
  "17139": {
    "lat": 39.636896,
    "lng": -88.625726,
    "name": "Moultrie County",
    "state": "IL"
  },
  "17141": {
    "lat": 42.041884,
    "lng": -89.320176,
    "name": "Ogle County",
    "state": "IL"
  },
  "17143": {
    "lat": 40.785972,
    "lng": -89.766993,
    "name": "Peoria County",
    "state": "IL"
  },
  "17145": {
    "lat": 38.084381,
    "lng": -89.368525,
    "name": "Perry County",
    "state": "IL"
  },
  "17147": {
    "lat": 40.009033,
    "lng": -88.592355,
    "name": "Piatt County",
    "state": "IL"
  },
  "17149": {
    "lat": 39.625106,
    "lng": -90.889034,
    "name": "Pike County",
    "state": "IL"
  },
  "17151": {
    "lat": 37.417169,
    "lng": -88.542374,
    "name": "Pope County",
    "state": "IL"
  },
  "17153": {
    "lat": 37.215615,
    "lng": -89.127755,
    "name": "Pulaski County",
    "state": "IL"
  },
  "17155": {
    "lat": 41.198961,
    "lng": -89.298347,
    "name": "Putnam County",
    "state": "IL"
  },
  "17157": {
    "lat": 38.056515,
    "lng": -89.82121,
    "name": "Randolph County",
    "state": "IL"
  },
  "17159": {
    "lat": 38.712187,
    "lng": -88.085452,
    "name": "Richland County",
    "state": "IL"
  },
  "17161": {
    "lat": 41.468421,
    "lng": -90.572125,
    "name": "Rock Island County",
    "state": "IL"
  },
  "17163": {
    "lat": 38.470198,
    "lng": -89.928546,
    "name": "St. Clair County",
    "state": "IL"
  },
  "17165": {
    "lat": 37.751508,
    "lng": -88.545024,
    "name": "Saline County",
    "state": "IL"
  },
  "17167": {
    "lat": 39.756886,
    "lng": -89.662435,
    "name": "Sangamon County",
    "state": "IL"
  },
  "17169": {
    "lat": 40.156905,
    "lng": -90.613464,
    "name": "Schuyler County",
    "state": "IL"
  },
  "17171": {
    "lat": 39.637002,
    "lng": -90.477771,
    "name": "Scott County",
    "state": "IL"
  },
  "17173": {
    "lat": 39.384917,
    "lng": -88.798865,
    "name": "Shelby County",
    "state": "IL"
  },
  "17175": {
    "lat": 41.096908,
    "lng": -89.797411,
    "name": "Stark County",
    "state": "IL"
  },
  "17177": {
    "lat": 42.349726,
    "lng": -89.665994,
    "name": "Stephenson County",
    "state": "IL"
  },
  "17179": {
    "lat": 40.508074,
    "lng": -89.51626,
    "name": "Tazewell County",
    "state": "IL"
  },
  "17181": {
    "lat": 37.485652,
    "lng": -89.244639,
    "name": "Union County",
    "state": "IL"
  },
  "17183": {
    "lat": 40.186754,
    "lng": -87.726778,
    "name": "Vermilion County",
    "state": "IL"
  },
  "17185": {
    "lat": 38.445821,
    "lng": -87.839167,
    "name": "Wabash County",
    "state": "IL"
  },
  "17187": {
    "lat": 40.850441,
    "lng": -90.620223,
    "name": "Warren County",
    "state": "IL"
  },
  "17189": {
    "lat": 38.35314,
    "lng": -89.417187,
    "name": "Washington County",
    "state": "IL"
  },
  "17191": {
    "lat": 38.431857,
    "lng": -88.43243,
    "name": "Wayne County",
    "state": "IL"
  },
  "17193": {
    "lat": 38.087326,
    "lng": -88.178623,
    "name": "White County",
    "state": "IL"
  },
  "17195": {
    "lat": 41.750673,
    "lng": -89.911005,
    "name": "Whiteside County",
    "state": "IL"
  },
  "17197": {
    "lat": 41.448474,
    "lng": -87.978456,
    "name": "Will County",
    "state": "IL"
  },
  "17199": {
    "lat": 37.730353,
    "lng": -88.930018,
    "name": "Williamson County",
    "state": "IL"
  },
  "17201": {
    "lat": 42.337396,
    "lng": -89.161205,
    "name": "Winnebago County",
    "state": "IL"
  },
  "17203": {
    "lat": 40.789787,
    "lng": -89.210587,
    "name": "Woodford County",
    "state": "IL"
  },
  "18001": {
    "lat": 40.74573,
    "lng": -84.936134,
    "name": "Adams County",
    "state": "IN"
  },
  "18003": {
    "lat": 41.091909,
    "lng": -85.071791,
    "name": "Allen County",
    "state": "IN"
  },
  "18005": {
    "lat": 39.205843,
    "lng": -85.897999,
    "name": "Bartholomew County",
    "state": "IN"
  },
  "18007": {
    "lat": 40.600939,
    "lng": -87.314786,
    "name": "Benton County",
    "state": "IN"
  },
  "18009": {
    "lat": 40.472672,
    "lng": -85.32373,
    "name": "Blackford County",
    "state": "IN"
  },
  "18011": {
    "lat": 40.050892,
    "lng": -86.469014,
    "name": "Boone County",
    "state": "IN"
  },
  "18013": {
    "lat": 39.195113,
    "lng": -86.230121,
    "name": "Brown County",
    "state": "IN"
  },
  "18015": {
    "lat": 40.58498,
    "lng": -86.565141,
    "name": "Carroll County",
    "state": "IN"
  },
  "18017": {
    "lat": 40.753799,
    "lng": -86.355168,
    "name": "Cass County",
    "state": "IN"
  },
  "18019": {
    "lat": 38.476217,
    "lng": -85.711122,
    "name": "Clark County",
    "state": "IN"
  },
  "18021": {
    "lat": 39.393928,
    "lng": -87.115858,
    "name": "Clay County",
    "state": "IN"
  },
  "18023": {
    "lat": 40.305944,
    "lng": -86.477567,
    "name": "Clinton County",
    "state": "IN"
  },
  "18025": {
    "lat": 38.289433,
    "lng": -86.440871,
    "name": "Crawford County",
    "state": "IN"
  },
  "18027": {
    "lat": 38.69609,
    "lng": -87.076943,
    "name": "Daviess County",
    "state": "IN"
  },
  "18029": {
    "lat": 39.140897,
    "lng": -84.975868,
    "name": "Dearborn County",
    "state": "IN"
  },
  "18031": {
    "lat": 39.30598,
    "lng": -85.499831,
    "name": "Decatur County",
    "state": "IN"
  },
  "18033": {
    "lat": 41.39676,
    "lng": -85.002697,
    "name": "DeKalb County",
    "state": "IN"
  },
  "18035": {
    "lat": 40.227543,
    "lng": -85.399262,
    "name": "Delaware County",
    "state": "IN"
  },
  "18037": {
    "lat": 38.373344,
    "lng": -86.873385,
    "name": "Dubois County",
    "state": "IN"
  },
  "18039": {
    "lat": 41.600693,
    "lng": -85.863986,
    "name": "Elkhart County",
    "state": "IN"
  },
  "18041": {
    "lat": 39.639654,
    "lng": -85.185034,
    "name": "Fayette County",
    "state": "IN"
  },
  "18043": {
    "lat": 38.318081,
    "lng": -85.911847,
    "name": "Floyd County",
    "state": "IN"
  },
  "18045": {
    "lat": 40.121237,
    "lng": -87.234872,
    "name": "Fountain County",
    "state": "IN"
  },
  "18047": {
    "lat": 39.409762,
    "lng": -85.066964,
    "name": "Franklin County",
    "state": "IN"
  },
  "18049": {
    "lat": 41.050384,
    "lng": -86.265006,
    "name": "Fulton County",
    "state": "IN"
  },
  "18051": {
    "lat": 38.317398,
    "lng": -87.580523,
    "name": "Gibson County",
    "state": "IN"
  },
  "18053": {
    "lat": 40.515758,
    "lng": -85.654946,
    "name": "Grant County",
    "state": "IN"
  },
  "18055": {
    "lat": 39.047147,
    "lng": -87.004771,
    "name": "Greene County",
    "state": "IN"
  },
  "18057": {
    "lat": 40.053513,
    "lng": -86.021709,
    "name": "Hamilton County",
    "state": "IN"
  },
  "18059": {
    "lat": 39.822529,
    "lng": -85.77315,
    "name": "Hancock County",
    "state": "IN"
  },
  "18061": {
    "lat": 38.186454,
    "lng": -86.103766,
    "name": "Harrison County",
    "state": "IN"
  },
  "18063": {
    "lat": 39.768963,
    "lng": -86.509908,
    "name": "Hendricks County",
    "state": "IN"
  },
  "18065": {
    "lat": 39.929591,
    "lng": -85.397363,
    "name": "Henry County",
    "state": "IN"
  },
  "18067": {
    "lat": 40.483537,
    "lng": -86.114118,
    "name": "Howard County",
    "state": "IN"
  },
  "18069": {
    "lat": 40.826394,
    "lng": -85.478597,
    "name": "Huntington County",
    "state": "IN"
  },
  "18071": {
    "lat": 38.911957,
    "lng": -86.042516,
    "name": "Jackson County",
    "state": "IN"
  },
  "18073": {
    "lat": 41.017688,
    "lng": -87.118814,
    "name": "Jasper County",
    "state": "IN"
  },
  "18075": {
    "lat": 40.434956,
    "lng": -85.002331,
    "name": "Jay County",
    "state": "IN"
  },
  "18077": {
    "lat": 38.783604,
    "lng": -85.44009,
    "name": "Jefferson County",
    "state": "IN"
  },
  "18079": {
    "lat": 38.996229,
    "lng": -85.628103,
    "name": "Jennings County",
    "state": "IN"
  },
  "18081": {
    "lat": 39.496092,
    "lng": -86.094264,
    "name": "Johnson County",
    "state": "IN"
  },
  "18083": {
    "lat": 38.688381,
    "lng": -87.420358,
    "name": "Knox County",
    "state": "IN"
  },
  "18085": {
    "lat": 41.244293,
    "lng": -85.861575,
    "name": "Kosciusko County",
    "state": "IN"
  },
  "18087": {
    "lat": 41.642462,
    "lng": -85.427845,
    "name": "LaGrange County",
    "state": "IN"
  },
  "18089": {
    "lat": 41.472247,
    "lng": -87.374337,
    "name": "Lake County",
    "state": "IN"
  },
  "18091": {
    "lat": 41.549013,
    "lng": -86.744739,
    "name": "LaPorte County",
    "state": "IN"
  },
  "18093": {
    "lat": 38.839815,
    "lng": -86.48782,
    "name": "Lawrence County",
    "state": "IN"
  },
  "18095": {
    "lat": 40.166203,
    "lng": -85.722454,
    "name": "Madison County",
    "state": "IN"
  },
  "18097": {
    "lat": 39.782976,
    "lng": -86.135794,
    "name": "Marion County",
    "state": "IN"
  },
  "18099": {
    "lat": 41.325003,
    "lng": -86.269036,
    "name": "Marshall County",
    "state": "IN"
  },
  "18101": {
    "lat": 38.705322,
    "lng": -86.801847,
    "name": "Martin County",
    "state": "IN"
  },
  "18103": {
    "lat": 40.772883,
    "lng": -86.044258,
    "name": "Miami County",
    "state": "IN"
  },
  "18105": {
    "lat": 39.160729,
    "lng": -86.52331,
    "name": "Monroe County",
    "state": "IN"
  },
  "18107": {
    "lat": 40.040296,
    "lng": -86.892715,
    "name": "Montgomery County",
    "state": "IN"
  },
  "18109": {
    "lat": 39.482646,
    "lng": -86.447457,
    "name": "Morgan County",
    "state": "IN"
  },
  "18111": {
    "lat": 40.962399,
    "lng": -87.402172,
    "name": "Newton County",
    "state": "IN"
  },
  "18113": {
    "lat": 41.404679,
    "lng": -85.417271,
    "name": "Noble County",
    "state": "IN"
  },
  "18115": {
    "lat": 38.940527,
    "lng": -84.964299,
    "name": "Ohio County",
    "state": "IN"
  },
  "18117": {
    "lat": 38.547381,
    "lng": -86.489257,
    "name": "Orange County",
    "state": "IN"
  },
  "18119": {
    "lat": 39.317339,
    "lng": -86.838845,
    "name": "Owen County",
    "state": "IN"
  },
  "18121": {
    "lat": 39.77425,
    "lng": -87.19695,
    "name": "Parke County",
    "state": "IN"
  },
  "18123": {
    "lat": 38.081436,
    "lng": -86.62654,
    "name": "Perry County",
    "state": "IN"
  },
  "18125": {
    "lat": 38.397961,
    "lng": -87.232547,
    "name": "Pike County",
    "state": "IN"
  },
  "18127": {
    "lat": 41.509914,
    "lng": -87.071313,
    "name": "Porter County",
    "state": "IN"
  },
  "18129": {
    "lat": 38.027614,
    "lng": -87.868653,
    "name": "Posey County",
    "state": "IN"
  },
  "18131": {
    "lat": 41.045272,
    "lng": -86.692538,
    "name": "Pulaski County",
    "state": "IN"
  },
  "18133": {
    "lat": 39.665548,
    "lng": -86.853373,
    "name": "Putnam County",
    "state": "IN"
  },
  "18135": {
    "lat": 40.164079,
    "lng": -85.00579,
    "name": "Randolph County",
    "state": "IN"
  },
  "18137": {
    "lat": 39.100226,
    "lng": -85.260494,
    "name": "Ripley County",
    "state": "IN"
  },
  "18139": {
    "lat": 39.622365,
    "lng": -85.466536,
    "name": "Rush County",
    "state": "IN"
  },
  "18141": {
    "lat": 41.617723,
    "lng": -86.288048,
    "name": "St. Joseph County",
    "state": "IN"
  },
  "18143": {
    "lat": 38.679431,
    "lng": -85.751898,
    "name": "Scott County",
    "state": "IN"
  },
  "18145": {
    "lat": 39.524135,
    "lng": -85.792174,
    "name": "Shelby County",
    "state": "IN"
  },
  "18147": {
    "lat": 38.009697,
    "lng": -87.010375,
    "name": "Spencer County",
    "state": "IN"
  },
  "18149": {
    "lat": 41.284478,
    "lng": -86.644636,
    "name": "Starke County",
    "state": "IN"
  },
  "18151": {
    "lat": 41.643467,
    "lng": -85.002405,
    "name": "Steuben County",
    "state": "IN"
  },
  "18153": {
    "lat": 39.089225,
    "lng": -87.415843,
    "name": "Sullivan County",
    "state": "IN"
  },
  "18155": {
    "lat": 38.825854,
    "lng": -85.029681,
    "name": "Switzerland County",
    "state": "IN"
  },
  "18157": {
    "lat": 40.389133,
    "lng": -86.893554,
    "name": "Tippecanoe County",
    "state": "IN"
  },
  "18159": {
    "lat": 40.310229,
    "lng": -86.056207,
    "name": "Tipton County",
    "state": "IN"
  },
  "18161": {
    "lat": 39.623094,
    "lng": -84.925145,
    "name": "Union County",
    "state": "IN"
  },
  "18163": {
    "lat": 38.02007,
    "lng": -87.586166,
    "name": "Vanderburgh County",
    "state": "IN"
  },
  "18165": {
    "lat": 39.854045,
    "lng": -87.462071,
    "name": "Vermillion County",
    "state": "IN"
  },
  "18167": {
    "lat": 39.430874,
    "lng": -87.390989,
    "name": "Vigo County",
    "state": "IN"
  },
  "18169": {
    "lat": 40.843747,
    "lng": -85.795192,
    "name": "Wabash County",
    "state": "IN"
  },
  "18171": {
    "lat": 40.352498,
    "lng": -87.375163,
    "name": "Warren County",
    "state": "IN"
  },
  "18173": {
    "lat": 38.097728,
    "lng": -87.272049,
    "name": "Warrick County",
    "state": "IN"
  },
  "18175": {
    "lat": 38.600613,
    "lng": -86.104751,
    "name": "Washington County",
    "state": "IN"
  },
  "18177": {
    "lat": 39.863091,
    "lng": -85.006735,
    "name": "Wayne County",
    "state": "IN"
  },
  "18179": {
    "lat": 40.735547,
    "lng": -85.213349,
    "name": "Wells County",
    "state": "IN"
  },
  "18181": {
    "lat": 40.75095,
    "lng": -86.864293,
    "name": "White County",
    "state": "IN"
  },
  "18183": {
    "lat": 41.136426,
    "lng": -85.501892,
    "name": "Whitley County",
    "state": "IN"
  },
  "19001": {
    "lat": 41.328528,
    "lng": -94.478164,
    "name": "Adair County",
    "state": "IA"
  },
  "19003": {
    "lat": 41.021656,
    "lng": -94.696906,
    "name": "Adams County",
    "state": "IA"
  },
  "19005": {
    "lat": 43.274964,
    "lng": -91.382751,
    "name": "Allamakee County",
    "state": "IA"
  },
  "19007": {
    "lat": 40.744249,
    "lng": -92.873062,
    "name": "Appanoose County",
    "state": "IA"
  },
  "19009": {
    "lat": 41.679178,
    "lng": -94.904312,
    "name": "Audubon County",
    "state": "IA"
  },
  "19011": {
    "lat": 42.092547,
    "lng": -92.05763,
    "name": "Benton County",
    "state": "IA"
  },
  "19013": {
    "lat": 42.471132,
    "lng": -92.3076,
    "name": "Black Hawk County",
    "state": "IA"
  },
  "19015": {
    "lat": 42.038623,
    "lng": -93.938605,
    "name": "Boone County",
    "state": "IA"
  },
  "19017": {
    "lat": 42.780895,
    "lng": -92.327356,
    "name": "Bremer County",
    "state": "IA"
  },
  "19019": {
    "lat": 42.470328,
    "lng": -91.838666,
    "name": "Buchanan County",
    "state": "IA"
  },
  "19021": {
    "lat": 42.741522,
    "lng": -95.141432,
    "name": "Buena Vista County",
    "state": "IA"
  },
  "19023": {
    "lat": 42.734757,
    "lng": -92.780153,
    "name": "Butler County",
    "state": "IA"
  },
  "19025": {
    "lat": 42.386061,
    "lng": -94.643602,
    "name": "Calhoun County",
    "state": "IA"
  },
  "19027": {
    "lat": 42.039502,
    "lng": -94.86765,
    "name": "Carroll County",
    "state": "IA"
  },
  "19029": {
    "lat": 41.333824,
    "lng": -94.933302,
    "name": "Cass County",
    "state": "IA"
  },
  "19031": {
    "lat": 41.77236,
    "lng": -91.132611,
    "name": "Cedar County",
    "state": "IA"
  },
  "19033": {
    "lat": 43.074975,
    "lng": -93.250965,
    "name": "Cerro Gordo County",
    "state": "IA"
  },
  "19035": {
    "lat": 42.742737,
    "lng": -95.633262,
    "name": "Cherokee County",
    "state": "IA"
  },
  "19037": {
    "lat": 43.059741,
    "lng": -92.31721,
    "name": "Chickasaw County",
    "state": "IA"
  },
  "19039": {
    "lat": 41.029726,
    "lng": -93.785259,
    "name": "Clarke County",
    "state": "IA"
  },
  "19041": {
    "lat": 43.081224,
    "lng": -95.149875,
    "name": "Clay County",
    "state": "IA"
  },
  "19043": {
    "lat": 42.840985,
    "lng": -91.323576,
    "name": "Clayton County",
    "state": "IA"
  },
  "19045": {
    "lat": 41.898073,
    "lng": -90.534243,
    "name": "Clinton County",
    "state": "IA"
  },
  "19047": {
    "lat": 42.043119,
    "lng": -95.38909,
    "name": "Crawford County",
    "state": "IA"
  },
  "19049": {
    "lat": 41.68532,
    "lng": -94.040706,
    "name": "Dallas County",
    "state": "IA"
  },
  "19051": {
    "lat": 40.748089,
    "lng": -92.410345,
    "name": "Davis County",
    "state": "IA"
  },
  "19053": {
    "lat": 40.736379,
    "lng": -93.78458,
    "name": "Decatur County",
    "state": "IA"
  },
  "19055": {
    "lat": 42.473014,
    "lng": -91.366767,
    "name": "Delaware County",
    "state": "IA"
  },
  "19057": {
    "lat": 40.915339,
    "lng": -91.186925,
    "name": "Des Moines County",
    "state": "IA"
  },
  "19059": {
    "lat": 43.389611,
    "lng": -95.196057,
    "name": "Dickinson County",
    "state": "IA"
  },
  "19061": {
    "lat": 42.463481,
    "lng": -90.878771,
    "name": "Dubuque County",
    "state": "IA"
  },
  "19063": {
    "lat": 43.377984,
    "lng": -94.66937,
    "name": "Emmet County",
    "state": "IA"
  },
  "19065": {
    "lat": 42.864122,
    "lng": -91.840376,
    "name": "Fayette County",
    "state": "IA"
  },
  "19067": {
    "lat": 43.052741,
    "lng": -92.787367,
    "name": "Floyd County",
    "state": "IA"
  },
  "19069": {
    "lat": 42.736545,
    "lng": -93.271415,
    "name": "Franklin County",
    "state": "IA"
  },
  "19071": {
    "lat": 40.74259,
    "lng": -95.599182,
    "name": "Fremont County",
    "state": "IA"
  },
  "19073": {
    "lat": 42.042513,
    "lng": -94.388727,
    "name": "Greene County",
    "state": "IA"
  },
  "19075": {
    "lat": 42.403339,
    "lng": -92.790244,
    "name": "Grundy County",
    "state": "IA"
  },
  "19077": {
    "lat": 41.683573,
    "lng": -94.501272,
    "name": "Guthrie County",
    "state": "IA"
  },
  "19079": {
    "lat": 42.390789,
    "lng": -93.70913,
    "name": "Hamilton County",
    "state": "IA"
  },
  "19081": {
    "lat": 43.075411,
    "lng": -93.743697,
    "name": "Hancock County",
    "state": "IA"
  },
  "19083": {
    "lat": 42.390208,
    "lng": -93.241669,
    "name": "Hardin County",
    "state": "IA"
  },
  "19085": {
    "lat": 41.688584,
    "lng": -95.827149,
    "name": "Harrison County",
    "state": "IA"
  },
  "19087": {
    "lat": 40.984802,
    "lng": -91.547259,
    "name": "Henry County",
    "state": "IA"
  },
  "19089": {
    "lat": 43.365312,
    "lng": -92.321908,
    "name": "Howard County",
    "state": "IA"
  },
  "19091": {
    "lat": 42.782221,
    "lng": -94.202775,
    "name": "Humboldt County",
    "state": "IA"
  },
  "19093": {
    "lat": 42.39186,
    "lng": -95.507421,
    "name": "Ida County",
    "state": "IA"
  },
  "19095": {
    "lat": 41.683918,
    "lng": -92.059123,
    "name": "Iowa County",
    "state": "IA"
  },
  "19097": {
    "lat": 42.164226,
    "lng": -90.574582,
    "name": "Jackson County",
    "state": "IA"
  },
  "19099": {
    "lat": 41.685551,
    "lng": -93.054147,
    "name": "Jasper County",
    "state": "IA"
  },
  "19101": {
    "lat": 41.006376,
    "lng": -91.966628,
    "name": "Jefferson County",
    "state": "IA"
  },
  "19103": {
    "lat": 41.670668,
    "lng": -91.590529,
    "name": "Johnson County",
    "state": "IA"
  },
  "19105": {
    "lat": 42.125118,
    "lng": -91.116914,
    "name": "Jones County",
    "state": "IA"
  },
  "19107": {
    "lat": 41.331182,
    "lng": -92.167721,
    "name": "Keokuk County",
    "state": "IA"
  },
  "19109": {
    "lat": 43.212336,
    "lng": -94.213971,
    "name": "Kossuth County",
    "state": "IA"
  },
  "19111": {
    "lat": 40.647588,
    "lng": -91.477157,
    "name": "Lee County",
    "state": "IA"
  },
  "19113": {
    "lat": 42.077951,
    "lng": -91.597674,
    "name": "Linn County",
    "state": "IA"
  },
  "19115": {
    "lat": 41.218211,
    "lng": -91.256994,
    "name": "Louisa County",
    "state": "IA"
  },
  "19117": {
    "lat": 41.033321,
    "lng": -93.331462,
    "name": "Lucas County",
    "state": "IA"
  },
  "19119": {
    "lat": 43.38358,
    "lng": -96.207201,
    "name": "Lyon County",
    "state": "IA"
  },
  "19121": {
    "lat": 41.330622,
    "lng": -94.015184,
    "name": "Madison County",
    "state": "IA"
  },
  "19123": {
    "lat": 41.330797,
    "lng": -92.636366,
    "name": "Mahaska County",
    "state": "IA"
  },
  "19125": {
    "lat": 41.331433,
    "lng": -93.093868,
    "name": "Marion County",
    "state": "IA"
  },
  "19127": {
    "lat": 42.0417,
    "lng": -92.981403,
    "name": "Marshall County",
    "state": "IA"
  },
  "19129": {
    "lat": 41.033703,
    "lng": -95.619101,
    "name": "Mills County",
    "state": "IA"
  },
  "19131": {
    "lat": 43.348564,
    "lng": -92.784466,
    "name": "Mitchell County",
    "state": "IA"
  },
  "19133": {
    "lat": 42.049432,
    "lng": -95.956566,
    "name": "Monona County",
    "state": "IA"
  },
  "19135": {
    "lat": 41.028847,
    "lng": -92.869642,
    "name": "Monroe County",
    "state": "IA"
  },
  "19137": {
    "lat": 41.021735,
    "lng": -95.15779,
    "name": "Montgomery County",
    "state": "IA"
  },
  "19139": {
    "lat": 41.483776,
    "lng": -91.118699,
    "name": "Muscatine County",
    "state": "IA"
  },
  "19141": {
    "lat": 43.083746,
    "lng": -95.625624,
    "name": "O'Brien County",
    "state": "IA"
  },
  "19143": {
    "lat": 43.378542,
    "lng": -95.633788,
    "name": "Osceola County",
    "state": "IA"
  },
  "19145": {
    "lat": 40.739097,
    "lng": -95.144301,
    "name": "Page County",
    "state": "IA"
  },
  "19147": {
    "lat": 43.075337,
    "lng": -94.669055,
    "name": "Palo Alto County",
    "state": "IA"
  },
  "19149": {
    "lat": 42.737615,
    "lng": -96.215973,
    "name": "Plymouth County",
    "state": "IA"
  },
  "19151": {
    "lat": 42.734033,
    "lng": -94.678279,
    "name": "Pocahontas County",
    "state": "IA"
  },
  "19153": {
    "lat": 41.684816,
    "lng": -93.568971,
    "name": "Polk County",
    "state": "IA"
  },
  "19155": {
    "lat": 41.340184,
    "lng": -95.544905,
    "name": "Pottawattamie County",
    "state": "IA"
  },
  "19157": {
    "lat": 41.684642,
    "lng": -92.522934,
    "name": "Poweshiek County",
    "state": "IA"
  },
  "19159": {
    "lat": 40.735334,
    "lng": -94.244251,
    "name": "Ringgold County",
    "state": "IA"
  },
  "19161": {
    "lat": 42.387526,
    "lng": -95.105224,
    "name": "Sac County",
    "state": "IA"
  },
  "19163": {
    "lat": 41.642079,
    "lng": -90.622289,
    "name": "Scott County",
    "state": "IA"
  },
  "19165": {
    "lat": 41.679014,
    "lng": -95.308917,
    "name": "Shelby County",
    "state": "IA"
  },
  "19167": {
    "lat": 43.082618,
    "lng": -96.17798,
    "name": "Sioux County",
    "state": "IA"
  },
  "19169": {
    "lat": 42.037538,
    "lng": -93.466093,
    "name": "Story County",
    "state": "IA"
  },
  "19171": {
    "lat": 42.074848,
    "lng": -92.529411,
    "name": "Tama County",
    "state": "IA"
  },
  "19173": {
    "lat": 40.737949,
    "lng": -94.697108,
    "name": "Taylor County",
    "state": "IA"
  },
  "19175": {
    "lat": 41.02855,
    "lng": -94.245091,
    "name": "Union County",
    "state": "IA"
  },
  "19177": {
    "lat": 40.754117,
    "lng": -91.952943,
    "name": "Van Buren County",
    "state": "IA"
  },
  "19179": {
    "lat": 41.031275,
    "lng": -92.409466,
    "name": "Wapello County",
    "state": "IA"
  },
  "19181": {
    "lat": 41.332446,
    "lng": -93.568751,
    "name": "Warren County",
    "state": "IA"
  },
  "19183": {
    "lat": 41.329401,
    "lng": -91.725052,
    "name": "Washington County",
    "state": "IA"
  },
  "19185": {
    "lat": 40.739983,
    "lng": -93.332613,
    "name": "Wayne County",
    "state": "IA"
  },
  "19187": {
    "lat": 42.433579,
    "lng": -94.175831,
    "name": "Webster County",
    "state": "IA"
  },
  "19189": {
    "lat": 43.378124,
    "lng": -93.743488,
    "name": "Winnebago County",
    "state": "IA"
  },
  "19191": {
    "lat": 43.292989,
    "lng": -91.850788,
    "name": "Winneshiek County",
    "state": "IA"
  },
  "19193": {
    "lat": 42.39322,
    "lng": -96.053296,
    "name": "Woodbury County",
    "state": "IA"
  },
  "19195": {
    "lat": 43.373491,
    "lng": -93.248533,
    "name": "Worth County",
    "state": "IA"
  },
  "19197": {
    "lat": 42.733007,
    "lng": -93.734735,
    "name": "Wright County",
    "state": "IA"
  },
  "20001": {
    "lat": 37.884228,
    "lng": -95.300945,
    "name": "Allen County",
    "state": "KS"
  },
  "20003": {
    "lat": 38.215114,
    "lng": -95.292046,
    "name": "Anderson County",
    "state": "KS"
  },
  "20005": {
    "lat": 39.532544,
    "lng": -95.313397,
    "name": "Atchison County",
    "state": "KS"
  },
  "20007": {
    "lat": 37.222906,
    "lng": -98.685052,
    "name": "Barber County",
    "state": "KS"
  },
  "20009": {
    "lat": 38.481239,
    "lng": -98.767837,
    "name": "Barton County",
    "state": "KS"
  },
  "20011": {
    "lat": 37.8561,
    "lng": -94.850928,
    "name": "Bourbon County",
    "state": "KS"
  },
  "20013": {
    "lat": 39.825931,
    "lng": -95.569905,
    "name": "Brown County",
    "state": "KS"
  },
  "20015": {
    "lat": 37.773649,
    "lng": -96.83884,
    "name": "Butler County",
    "state": "KS"
  },
  "20017": {
    "lat": 38.299475,
    "lng": -96.594029,
    "name": "Chase County",
    "state": "KS"
  },
  "20019": {
    "lat": 37.154259,
    "lng": -96.245396,
    "name": "Chautauqua County",
    "state": "KS"
  },
  "20021": {
    "lat": 37.169392,
    "lng": -94.845698,
    "name": "Cherokee County",
    "state": "KS"
  },
  "20023": {
    "lat": 39.789901,
    "lng": -101.727317,
    "name": "Cheyenne County",
    "state": "KS"
  },
  "20025": {
    "lat": 37.233831,
    "lng": -99.813869,
    "name": "Clark County",
    "state": "KS"
  },
  "20027": {
    "lat": 39.344964,
    "lng": -97.168853,
    "name": "Clay County",
    "state": "KS"
  },
  "20029": {
    "lat": 39.487329,
    "lng": -97.64139,
    "name": "Cloud County",
    "state": "KS"
  },
  "20031": {
    "lat": 38.23645,
    "lng": -95.729137,
    "name": "Coffey County",
    "state": "KS"
  },
  "20033": {
    "lat": 37.181442,
    "lng": -99.251293,
    "name": "Comanche County",
    "state": "KS"
  },
  "20035": {
    "lat": 37.234507,
    "lng": -96.837247,
    "name": "Cowley County",
    "state": "KS"
  },
  "20037": {
    "lat": 37.505821,
    "lng": -94.853897,
    "name": "Crawford County",
    "state": "KS"
  },
  "20039": {
    "lat": 39.783542,
    "lng": -100.459708,
    "name": "Decatur County",
    "state": "KS"
  },
  "20041": {
    "lat": 38.867735,
    "lng": -97.157943,
    "name": "Dickinson County",
    "state": "KS"
  },
  "20043": {
    "lat": 39.788502,
    "lng": -95.147225,
    "name": "Doniphan County",
    "state": "KS"
  },
  "20045": {
    "lat": 38.896417,
    "lng": -95.290947,
    "name": "Douglas County",
    "state": "KS"
  },
  "20047": {
    "lat": 37.883595,
    "lng": -99.304746,
    "name": "Edwards County",
    "state": "KS"
  },
  "20049": {
    "lat": 37.456026,
    "lng": -96.244642,
    "name": "Elk County",
    "state": "KS"
  },
  "20051": {
    "lat": 38.914597,
    "lng": -99.317313,
    "name": "Ellis County",
    "state": "KS"
  },
  "20053": {
    "lat": 38.700845,
    "lng": -98.205355,
    "name": "Ellsworth County",
    "state": "KS"
  },
  "20055": {
    "lat": 38.049808,
    "lng": -100.739967,
    "name": "Finney County",
    "state": "KS"
  },
  "20057": {
    "lat": 37.68851,
    "lng": -99.884743,
    "name": "Ford County",
    "state": "KS"
  },
  "20059": {
    "lat": 38.558019,
    "lng": -95.278962,
    "name": "Franklin County",
    "state": "KS"
  },
  "20061": {
    "lat": 39.002139,
    "lng": -96.7681,
    "name": "Geary County",
    "state": "KS"
  },
  "20063": {
    "lat": 38.917239,
    "lng": -100.48736,
    "name": "Gove County",
    "state": "KS"
  },
  "20065": {
    "lat": 39.354972,
    "lng": -99.879894,
    "name": "Graham County",
    "state": "KS"
  },
  "20067": {
    "lat": 37.547537,
    "lng": -101.299362,
    "name": "Grant County",
    "state": "KS"
  },
  "20069": {
    "lat": 37.744513,
    "lng": -100.451716,
    "name": "Gray County",
    "state": "KS"
  },
  "20071": {
    "lat": 38.480404,
    "lng": -101.80597,
    "name": "Greeley County",
    "state": "KS"
  },
  "20073": {
    "lat": 37.879347,
    "lng": -96.241732,
    "name": "Greenwood County",
    "state": "KS"
  },
  "20075": {
    "lat": 37.995244,
    "lng": -101.793689,
    "name": "Hamilton County",
    "state": "KS"
  },
  "20077": {
    "lat": 37.188184,
    "lng": -98.06659,
    "name": "Harper County",
    "state": "KS"
  },
  "20079": {
    "lat": 38.050144,
    "lng": -97.436706,
    "name": "Harvey County",
    "state": "KS"
  },
  "20081": {
    "lat": 37.554979,
    "lng": -100.879952,
    "name": "Haskell County",
    "state": "KS"
  },
  "20083": {
    "lat": 38.087493,
    "lng": -99.898407,
    "name": "Hodgeman County",
    "state": "KS"
  },
  "20085": {
    "lat": 39.411096,
    "lng": -95.794492,
    "name": "Jackson County",
    "state": "KS"
  },
  "20087": {
    "lat": 39.239644,
    "lng": -95.375314,
    "name": "Jefferson County",
    "state": "KS"
  },
  "20089": {
    "lat": 39.777005,
    "lng": -98.222619,
    "name": "Jewell County",
    "state": "KS"
  },
  "20091": {
    "lat": 38.883907,
    "lng": -94.82233,
    "name": "Johnson County",
    "state": "KS"
  },
  "20093": {
    "lat": 37.994461,
    "lng": -101.308136,
    "name": "Kearny County",
    "state": "KS"
  },
  "20095": {
    "lat": 37.552951,
    "lng": -98.144529,
    "name": "Kingman County",
    "state": "KS"
  },
  "20097": {
    "lat": 37.561231,
    "lng": -99.286539,
    "name": "Kiowa County",
    "state": "KS"
  },
  "20099": {
    "lat": 37.191468,
    "lng": -95.297473,
    "name": "Labette County",
    "state": "KS"
  },
  "20101": {
    "lat": 38.481286,
    "lng": -100.466185,
    "name": "Lane County",
    "state": "KS"
  },
  "20103": {
    "lat": 39.189511,
    "lng": -95.038977,
    "name": "Leavenworth County",
    "state": "KS"
  },
  "20105": {
    "lat": 39.04728,
    "lng": -98.214284,
    "name": "Lincoln County",
    "state": "KS"
  },
  "20107": {
    "lat": 38.216549,
    "lng": -94.844932,
    "name": "Linn County",
    "state": "KS"
  },
  "20109": {
    "lat": 38.91327,
    "lng": -101.157402,
    "name": "Logan County",
    "state": "KS"
  },
  "20111": {
    "lat": 38.455403,
    "lng": -96.161641,
    "name": "Lyon County",
    "state": "KS"
  },
  "20113": {
    "lat": 38.395812,
    "lng": -97.647489,
    "name": "McPherson County",
    "state": "KS"
  },
  "20115": {
    "lat": 38.359647,
    "lng": -97.102771,
    "name": "Marion County",
    "state": "KS"
  },
  "20117": {
    "lat": 39.782709,
    "lng": -96.521243,
    "name": "Marshall County",
    "state": "KS"
  },
  "20119": {
    "lat": 37.243886,
    "lng": -100.360094,
    "name": "Meade County",
    "state": "KS"
  },
  "20121": {
    "lat": 38.566772,
    "lng": -94.832963,
    "name": "Miami County",
    "state": "KS"
  },
  "20123": {
    "lat": 39.393026,
    "lng": -98.207362,
    "name": "Mitchell County",
    "state": "KS"
  },
  "20125": {
    "lat": 37.189537,
    "lng": -95.742403,
    "name": "Montgomery County",
    "state": "KS"
  },
  "20127": {
    "lat": 38.688204,
    "lng": -96.651448,
    "name": "Morris County",
    "state": "KS"
  },
  "20129": {
    "lat": 37.185249,
    "lng": -101.809516,
    "name": "Morton County",
    "state": "KS"
  },
  "20131": {
    "lat": 39.791043,
    "lng": -96.005381,
    "name": "Nemaha County",
    "state": "KS"
  },
  "20133": {
    "lat": 37.564283,
    "lng": -95.315682,
    "name": "Neosho County",
    "state": "KS"
  },
  "20135": {
    "lat": 38.480437,
    "lng": -99.908745,
    "name": "Ness County",
    "state": "KS"
  },
  "20137": {
    "lat": 39.783867,
    "lng": -99.899235,
    "name": "Norton County",
    "state": "KS"
  },
  "20139": {
    "lat": 38.650215,
    "lng": -95.708255,
    "name": "Osage County",
    "state": "KS"
  },
  "20141": {
    "lat": 39.348261,
    "lng": -98.767942,
    "name": "Osborne County",
    "state": "KS"
  },
  "20143": {
    "lat": 39.137963,
    "lng": -97.654802,
    "name": "Ottawa County",
    "state": "KS"
  },
  "20145": {
    "lat": 38.181477,
    "lng": -99.234772,
    "name": "Pawnee County",
    "state": "KS"
  },
  "20147": {
    "lat": 39.784506,
    "lng": -99.34215,
    "name": "Phillips County",
    "state": "KS"
  },
  "20149": {
    "lat": 39.382187,
    "lng": -96.337113,
    "name": "Pottawatomie County",
    "state": "KS"
  },
  "20151": {
    "lat": 37.647594,
    "lng": -98.74012,
    "name": "Pratt County",
    "state": "KS"
  },
  "20153": {
    "lat": 39.786198,
    "lng": -101.076738,
    "name": "Rawlins County",
    "state": "KS"
  },
  "20155": {
    "lat": 37.948185,
    "lng": -98.078346,
    "name": "Reno County",
    "state": "KS"
  },
  "20157": {
    "lat": 39.828906,
    "lng": -97.650883,
    "name": "Republic County",
    "state": "KS"
  },
  "20159": {
    "lat": 38.347178,
    "lng": -98.201415,
    "name": "Rice County",
    "state": "KS"
  },
  "20161": {
    "lat": 39.29121,
    "lng": -96.727488,
    "name": "Riley County",
    "state": "KS"
  },
  "20163": {
    "lat": 39.346006,
    "lng": -99.324492,
    "name": "Rooks County",
    "state": "KS"
  },
  "20165": {
    "lat": 38.523596,
    "lng": -99.309184,
    "name": "Rush County",
    "state": "KS"
  },
  "20167": {
    "lat": 38.91604,
    "lng": -98.770949,
    "name": "Russell County",
    "state": "KS"
  },
  "20169": {
    "lat": 38.791804,
    "lng": -97.651478,
    "name": "Saline County",
    "state": "KS"
  },
  "20171": {
    "lat": 38.481877,
    "lng": -100.90636,
    "name": "Scott County",
    "state": "KS"
  },
  "20173": {
    "lat": 37.681045,
    "lng": -97.461054,
    "name": "Sedgwick County",
    "state": "KS"
  },
  "20175": {
    "lat": 37.18096,
    "lng": -100.855257,
    "name": "Seward County",
    "state": "KS"
  },
  "20177": {
    "lat": 39.041805,
    "lng": -95.755664,
    "name": "Shawnee County",
    "state": "KS"
  },
  "20179": {
    "lat": 39.350547,
    "lng": -100.441228,
    "name": "Sheridan County",
    "state": "KS"
  },
  "20181": {
    "lat": 39.351352,
    "lng": -101.719859,
    "name": "Sherman County",
    "state": "KS"
  },
  "20183": {
    "lat": 39.78466,
    "lng": -98.785429,
    "name": "Smith County",
    "state": "KS"
  },
  "20185": {
    "lat": 38.03563,
    "lng": -98.719889,
    "name": "Stafford County",
    "state": "KS"
  },
  "20187": {
    "lat": 37.565932,
    "lng": -101.789383,
    "name": "Stanton County",
    "state": "KS"
  },
  "20189": {
    "lat": 37.2017,
    "lng": -101.317268,
    "name": "Stevens County",
    "state": "KS"
  },
  "20191": {
    "lat": 37.236662,
    "lng": -97.493352,
    "name": "Sumner County",
    "state": "KS"
  },
  "20193": {
    "lat": 39.357713,
    "lng": -101.083386,
    "name": "Thomas County",
    "state": "KS"
  },
  "20195": {
    "lat": 38.921302,
    "lng": -99.865423,
    "name": "Trego County",
    "state": "KS"
  },
  "20197": {
    "lat": 38.955154,
    "lng": -96.201262,
    "name": "Wabaunsee County",
    "state": "KS"
  },
  "20199": {
    "lat": 38.926626,
    "lng": -101.771103,
    "name": "Wallace County",
    "state": "KS"
  },
  "20201": {
    "lat": 39.776714,
    "lng": -97.095611,
    "name": "Washington County",
    "state": "KS"
  },
  "20203": {
    "lat": 38.481922,
    "lng": -101.347434,
    "name": "Wichita County",
    "state": "KS"
  },
  "20205": {
    "lat": 37.558515,
    "lng": -95.745175,
    "name": "Wilson County",
    "state": "KS"
  },
  "20207": {
    "lat": 37.888193,
    "lng": -95.758469,
    "name": "Woodson County",
    "state": "KS"
  },
  "20209": {
    "lat": 39.115384,
    "lng": -94.763087,
    "name": "Wyandotte County",
    "state": "KS"
  },
  "21001": {
    "lat": 37.105559,
    "lng": -85.28138,
    "name": "Adair County",
    "state": "KY"
  },
  "21003": {
    "lat": 36.75077,
    "lng": -86.192458,
    "name": "Allen County",
    "state": "KY"
  },
  "21005": {
    "lat": 38.005396,
    "lng": -84.986417,
    "name": "Anderson County",
    "state": "KY"
  },
  "21007": {
    "lat": 37.051323,
    "lng": -89.010367,
    "name": "Ballard County",
    "state": "KY"
  },
  "21009": {
    "lat": 36.962805,
    "lng": -85.932108,
    "name": "Barren County",
    "state": "KY"
  },
  "21011": {
    "lat": 38.152249,
    "lng": -83.737641,
    "name": "Bath County",
    "state": "KY"
  },
  "21013": {
    "lat": 36.728928,
    "lng": -83.680718,
    "name": "Bell County",
    "state": "KY"
  },
  "21015": {
    "lat": 38.9589,
    "lng": -84.736371,
    "name": "Boone County",
    "state": "KY"
  },
  "21017": {
    "lat": 38.202562,
    "lng": -84.20986,
    "name": "Bourbon County",
    "state": "KY"
  },
  "21019": {
    "lat": 38.360003,
    "lng": -82.681406,
    "name": "Boyd County",
    "state": "KY"
  },
  "21021": {
    "lat": 37.618104,
    "lng": -84.868352,
    "name": "Boyle County",
    "state": "KY"
  },
  "21023": {
    "lat": 38.680365,
    "lng": -84.115235,
    "name": "Bracken County",
    "state": "KY"
  },
  "21025": {
    "lat": 37.517807,
    "lng": -83.317158,
    "name": "Breathitt County",
    "state": "KY"
  },
  "21027": {
    "lat": 37.777988,
    "lng": -86.432919,
    "name": "Breckinridge County",
    "state": "KY"
  },
  "21029": {
    "lat": 37.969945,
    "lng": -85.702635,
    "name": "Bullitt County",
    "state": "KY"
  },
  "21031": {
    "lat": 37.207013,
    "lng": -86.682471,
    "name": "Butler County",
    "state": "KY"
  },
  "21033": {
    "lat": 37.148642,
    "lng": -87.870509,
    "name": "Caldwell County",
    "state": "KY"
  },
  "21035": {
    "lat": 36.620978,
    "lng": -88.274086,
    "name": "Calloway County",
    "state": "KY"
  },
  "21037": {
    "lat": 38.946981,
    "lng": -84.379583,
    "name": "Campbell County",
    "state": "KY"
  },
  "21039": {
    "lat": 36.85718,
    "lng": -88.976614,
    "name": "Carlisle County",
    "state": "KY"
  },
  "21041": {
    "lat": 38.668394,
    "lng": -85.124024,
    "name": "Carroll County",
    "state": "KY"
  },
  "21043": {
    "lat": 38.314094,
    "lng": -83.038988,
    "name": "Carter County",
    "state": "KY"
  },
  "21045": {
    "lat": 37.321962,
    "lng": -84.92822,
    "name": "Casey County",
    "state": "KY"
  },
  "21047": {
    "lat": 36.892059,
    "lng": -87.492986,
    "name": "Christian County",
    "state": "KY"
  },
  "21049": {
    "lat": 37.970314,
    "lng": -84.145115,
    "name": "Clark County",
    "state": "KY"
  },
  "21051": {
    "lat": 37.164273,
    "lng": -83.715454,
    "name": "Clay County",
    "state": "KY"
  },
  "21053": {
    "lat": 36.727258,
    "lng": -85.136098,
    "name": "Clinton County",
    "state": "KY"
  },
  "21055": {
    "lat": 37.358149,
    "lng": -88.10501,
    "name": "Crittenden County",
    "state": "KY"
  },
  "21057": {
    "lat": 36.782372,
    "lng": -85.388484,
    "name": "Cumberland County",
    "state": "KY"
  },
  "21059": {
    "lat": 37.731671,
    "lng": -87.087139,
    "name": "Daviess County",
    "state": "KY"
  },
  "21061": {
    "lat": 37.227514,
    "lng": -86.218015,
    "name": "Edmonson County",
    "state": "KY"
  },
  "21063": {
    "lat": 38.116883,
    "lng": -83.096116,
    "name": "Elliott County",
    "state": "KY"
  },
  "21065": {
    "lat": 37.692449,
    "lng": -83.963983,
    "name": "Estill County",
    "state": "KY"
  },
  "21067": {
    "lat": 38.040678,
    "lng": -84.458272,
    "name": "Fayette County",
    "state": "KY"
  },
  "21069": {
    "lat": 38.367848,
    "lng": -83.699205,
    "name": "Fleming County",
    "state": "KY"
  },
  "21071": {
    "lat": 37.552456,
    "lng": -82.739724,
    "name": "Floyd County",
    "state": "KY"
  },
  "21073": {
    "lat": 38.234919,
    "lng": -84.868786,
    "name": "Franklin County",
    "state": "KY"
  },
  "21075": {
    "lat": 36.552511,
    "lng": -89.187659,
    "name": "Fulton County",
    "state": "KY"
  },
  "21077": {
    "lat": 38.755663,
    "lng": -84.865143,
    "name": "Gallatin County",
    "state": "KY"
  },
  "21079": {
    "lat": 37.630162,
    "lng": -84.545856,
    "name": "Garrard County",
    "state": "KY"
  },
  "21081": {
    "lat": 38.649167,
    "lng": -84.625924,
    "name": "Grant County",
    "state": "KY"
  },
  "21083": {
    "lat": 36.723344,
    "lng": -88.649897,
    "name": "Graves County",
    "state": "KY"
  },
  "21085": {
    "lat": 37.458577,
    "lng": -86.344011,
    "name": "Grayson County",
    "state": "KY"
  },
  "21087": {
    "lat": 37.278065,
    "lng": -85.537925,
    "name": "Green County",
    "state": "KY"
  },
  "21089": {
    "lat": 38.563562,
    "lng": -82.93382,
    "name": "Greenup County",
    "state": "KY"
  },
  "21091": {
    "lat": 37.843325,
    "lng": -86.792761,
    "name": "Hancock County",
    "state": "KY"
  },
  "21093": {
    "lat": 37.695836,
    "lng": -85.963183,
    "name": "Hardin County",
    "state": "KY"
  },
  "21095": {
    "lat": 36.859223,
    "lng": -83.221497,
    "name": "Harlan County",
    "state": "KY"
  },
  "21097": {
    "lat": 38.444578,
    "lng": -84.334131,
    "name": "Harrison County",
    "state": "KY"
  },
  "21099": {
    "lat": 37.305827,
    "lng": -85.878443,
    "name": "Hart County",
    "state": "KY"
  },
  "21101": {
    "lat": 37.792542,
    "lng": -87.572577,
    "name": "Henderson County",
    "state": "KY"
  },
  "21103": {
    "lat": 38.451383,
    "lng": -85.119647,
    "name": "Henry County",
    "state": "KY"
  },
  "21105": {
    "lat": 36.675896,
    "lng": -88.972084,
    "name": "Hickman County",
    "state": "KY"
  },
  "21107": {
    "lat": 37.31107,
    "lng": -87.542196,
    "name": "Hopkins County",
    "state": "KY"
  },
  "21109": {
    "lat": 37.403458,
    "lng": -84.020576,
    "name": "Jackson County",
    "state": "KY"
  },
  "21111": {
    "lat": 38.189532,
    "lng": -85.657624,
    "name": "Jefferson County",
    "state": "KY"
  },
  "21113": {
    "lat": 37.873291,
    "lng": -84.58396,
    "name": "Jessamine County",
    "state": "KY"
  },
  "21115": {
    "lat": 37.847756,
    "lng": -82.830121,
    "name": "Johnson County",
    "state": "KY"
  },
  "21117": {
    "lat": 38.930503,
    "lng": -84.533438,
    "name": "Kenton County",
    "state": "KY"
  },
  "21119": {
    "lat": 37.354368,
    "lng": -82.952546,
    "name": "Knott County",
    "state": "KY"
  },
  "21121": {
    "lat": 36.8885,
    "lng": -83.855551,
    "name": "Knox County",
    "state": "KY"
  },
  "21123": {
    "lat": 37.544462,
    "lng": -85.696841,
    "name": "Larue County",
    "state": "KY"
  },
  "21125": {
    "lat": 37.113268,
    "lng": -84.119395,
    "name": "Laurel County",
    "state": "KY"
  },
  "21127": {
    "lat": 38.074453,
    "lng": -82.73829,
    "name": "Lawrence County",
    "state": "KY"
  },
  "21129": {
    "lat": 37.608116,
    "lng": -83.719248,
    "name": "Lee County",
    "state": "KY"
  },
  "21131": {
    "lat": 37.087846,
    "lng": -83.388617,
    "name": "Leslie County",
    "state": "KY"
  },
  "21133": {
    "lat": 37.118536,
    "lng": -82.861251,
    "name": "Letcher County",
    "state": "KY"
  },
  "21135": {
    "lat": 38.535047,
    "lng": -83.370143,
    "name": "Lewis County",
    "state": "KY"
  },
  "21137": {
    "lat": 37.457174,
    "lng": -84.658335,
    "name": "Lincoln County",
    "state": "KY"
  },
  "21139": {
    "lat": 37.209517,
    "lng": -88.363426,
    "name": "Livingston County",
    "state": "KY"
  },
  "21141": {
    "lat": 36.859607,
    "lng": -86.881288,
    "name": "Logan County",
    "state": "KY"
  },
  "21143": {
    "lat": 37.023976,
    "lng": -88.083391,
    "name": "Lyon County",
    "state": "KY"
  },
  "21145": {
    "lat": 37.054111,
    "lng": -88.712454,
    "name": "McCracken County",
    "state": "KY"
  },
  "21147": {
    "lat": 36.731136,
    "lng": -84.491052,
    "name": "McCreary County",
    "state": "KY"
  },
  "21149": {
    "lat": 37.526707,
    "lng": -87.265597,
    "name": "McLean County",
    "state": "KY"
  },
  "21151": {
    "lat": 37.725511,
    "lng": -84.278362,
    "name": "Madison County",
    "state": "KY"
  },
  "21153": {
    "lat": 37.698983,
    "lng": -83.069721,
    "name": "Magoffin County",
    "state": "KY"
  },
  "21155": {
    "lat": 37.552604,
    "lng": -85.268959,
    "name": "Marion County",
    "state": "KY"
  },
  "21157": {
    "lat": 36.882017,
    "lng": -88.332752,
    "name": "Marshall County",
    "state": "KY"
  },
  "21159": {
    "lat": 37.796774,
    "lng": -82.506623,
    "name": "Martin County",
    "state": "KY"
  },
  "21161": {
    "lat": 38.594137,
    "lng": -83.828125,
    "name": "Mason County",
    "state": "KY"
  },
  "21163": {
    "lat": 37.967476,
    "lng": -86.200863,
    "name": "Meade County",
    "state": "KY"
  },
  "21165": {
    "lat": 37.935485,
    "lng": -83.589355,
    "name": "Menifee County",
    "state": "KY"
  },
  "21167": {
    "lat": 37.812085,
    "lng": -84.879695,
    "name": "Mercer County",
    "state": "KY"
  },
  "21169": {
    "lat": 36.99243,
    "lng": -85.633456,
    "name": "Metcalfe County",
    "state": "KY"
  },
  "21171": {
    "lat": 36.714077,
    "lng": -85.713508,
    "name": "Monroe County",
    "state": "KY"
  },
  "21173": {
    "lat": 38.038109,
    "lng": -83.912416,
    "name": "Montgomery County",
    "state": "KY"
  },
  "21175": {
    "lat": 37.92294,
    "lng": -83.258944,
    "name": "Morgan County",
    "state": "KY"
  },
  "21177": {
    "lat": 37.213816,
    "lng": -87.134092,
    "name": "Muhlenberg County",
    "state": "KY"
  },
  "21179": {
    "lat": 37.80312,
    "lng": -85.465931,
    "name": "Nelson County",
    "state": "KY"
  },
  "21181": {
    "lat": 38.338031,
    "lng": -84.026223,
    "name": "Nicholas County",
    "state": "KY"
  },
  "21183": {
    "lat": 37.477859,
    "lng": -86.844871,
    "name": "Ohio County",
    "state": "KY"
  },
  "21185": {
    "lat": 38.400127,
    "lng": -85.45615,
    "name": "Oldham County",
    "state": "KY"
  },
  "21187": {
    "lat": 38.499395,
    "lng": -84.84159,
    "name": "Owen County",
    "state": "KY"
  },
  "21189": {
    "lat": 37.423622,
    "lng": -83.691637,
    "name": "Owsley County",
    "state": "KY"
  },
  "21191": {
    "lat": 38.696284,
    "lng": -84.351943,
    "name": "Pendleton County",
    "state": "KY"
  },
  "21193": {
    "lat": 37.241282,
    "lng": -83.217772,
    "name": "Perry County",
    "state": "KY"
  },
  "21195": {
    "lat": 37.486031,
    "lng": -82.410912,
    "name": "Pike County",
    "state": "KY"
  },
  "21197": {
    "lat": 37.809567,
    "lng": -83.831235,
    "name": "Powell County",
    "state": "KY"
  },
  "21199": {
    "lat": 37.107428,
    "lng": -84.576969,
    "name": "Pulaski County",
    "state": "KY"
  },
  "21201": {
    "lat": 38.513473,
    "lng": -84.06423,
    "name": "Robertson County",
    "state": "KY"
  },
  "21203": {
    "lat": 37.36105,
    "lng": -84.314368,
    "name": "Rockcastle County",
    "state": "KY"
  },
  "21205": {
    "lat": 38.204266,
    "lng": -83.428079,
    "name": "Rowan County",
    "state": "KY"
  },
  "21207": {
    "lat": 36.990587,
    "lng": -85.05495,
    "name": "Russell County",
    "state": "KY"
  },
  "21209": {
    "lat": 38.28571,
    "lng": -84.57834,
    "name": "Scott County",
    "state": "KY"
  },
  "21211": {
    "lat": 38.239011,
    "lng": -85.228247,
    "name": "Shelby County",
    "state": "KY"
  },
  "21213": {
    "lat": 36.740929,
    "lng": -86.581787,
    "name": "Simpson County",
    "state": "KY"
  },
  "21215": {
    "lat": 38.025313,
    "lng": -85.317312,
    "name": "Spencer County",
    "state": "KY"
  },
  "21217": {
    "lat": 37.36621,
    "lng": -85.328059,
    "name": "Taylor County",
    "state": "KY"
  },
  "21219": {
    "lat": 36.840338,
    "lng": -87.183642,
    "name": "Todd County",
    "state": "KY"
  },
  "21221": {
    "lat": 36.807681,
    "lng": -87.858652,
    "name": "Trigg County",
    "state": "KY"
  },
  "21223": {
    "lat": 38.62004,
    "lng": -85.351208,
    "name": "Trimble County",
    "state": "KY"
  },
  "21225": {
    "lat": 37.658029,
    "lng": -87.95165,
    "name": "Union County",
    "state": "KY"
  },
  "21227": {
    "lat": 36.995634,
    "lng": -86.423579,
    "name": "Warren County",
    "state": "KY"
  },
  "21229": {
    "lat": 37.754209,
    "lng": -85.175416,
    "name": "Washington County",
    "state": "KY"
  },
  "21231": {
    "lat": 36.800772,
    "lng": -84.82659,
    "name": "Wayne County",
    "state": "KY"
  },
  "21233": {
    "lat": 37.520375,
    "lng": -87.685206,
    "name": "Webster County",
    "state": "KY"
  },
  "21235": {
    "lat": 36.758024,
    "lng": -84.144648,
    "name": "Whitley County",
    "state": "KY"
  },
  "21237": {
    "lat": 37.743893,
    "lng": -83.49511,
    "name": "Wolfe County",
    "state": "KY"
  },
  "21239": {
    "lat": 38.043103,
    "lng": -84.748855,
    "name": "Woodford County",
    "state": "KY"
  },
  "22001": {
    "lat": 30.291497,
    "lng": -92.411037,
    "name": "Acadia Parish",
    "state": "LA"
  },
  "22003": {
    "lat": 30.652744,
    "lng": -92.819605,
    "name": "Allen Parish",
    "state": "LA"
  },
  "22005": {
    "lat": 30.206444,
    "lng": -90.912502,
    "name": "Ascension Parish",
    "state": "LA"
  },
  "22007": {
    "lat": 29.9033,
    "lng": -91.065219,
    "name": "Assumption Parish",
    "state": "LA"
  },
  "22009": {
    "lat": 31.088503,
    "lng": -91.983275,
    "name": "Avoyelles Parish",
    "state": "LA"
  },
  "22011": {
    "lat": 30.645018,
    "lng": -93.340253,
    "name": "Beauregard Parish",
    "state": "LA"
  },
  "22013": {
    "lat": 32.340952,
    "lng": -93.041151,
    "name": "Bienville Parish",
    "state": "LA"
  },
  "22015": {
    "lat": 32.698481,
    "lng": -93.626561,
    "name": "Bossier Parish",
    "state": "LA"
  },
  "22017": {
    "lat": 32.580106,
    "lng": -93.88497,
    "name": "Caddo Parish",
    "state": "LA"
  },
  "22019": {
    "lat": 30.229559,
    "lng": -93.358015,
    "name": "Calcasieu Parish",
    "state": "LA"
  },
  "22021": {
    "lat": 32.101219,
    "lng": -92.114231,
    "name": "Caldwell Parish",
    "state": "LA"
  },
  "22023": {
    "lat": 29.871812,
    "lng": -93.164948,
    "name": "Cameron Parish",
    "state": "LA"
  },
  "22025": {
    "lat": 31.666517,
    "lng": -91.846703,
    "name": "Catahoula Parish",
    "state": "LA"
  },
  "22027": {
    "lat": 32.82716,
    "lng": -92.989728,
    "name": "Claiborne Parish",
    "state": "LA"
  },
  "22029": {
    "lat": 31.469805,
    "lng": -91.626315,
    "name": "Concordia Parish",
    "state": "LA"
  },
  "22031": {
    "lat": 32.059248,
    "lng": -93.740797,
    "name": "De Soto Parish",
    "state": "LA"
  },
  "22033": {
    "lat": 30.54393,
    "lng": -91.093131,
    "name": "East Baton Rouge Parish",
    "state": "LA"
  },
  "22035": {
    "lat": 32.73017,
    "lng": -91.234141,
    "name": "East Carroll Parish",
    "state": "LA"
  },
  "22037": {
    "lat": 30.839784,
    "lng": -91.043434,
    "name": "East Feliciana Parish",
    "state": "LA"
  },
  "22039": {
    "lat": 30.720693,
    "lng": -92.404086,
    "name": "Evangeline Parish",
    "state": "LA"
  },
  "22041": {
    "lat": 32.139076,
    "lng": -91.672371,
    "name": "Franklin Parish",
    "state": "LA"
  },
  "22043": {
    "lat": 31.597787,
    "lng": -92.561716,
    "name": "Grant Parish",
    "state": "LA"
  },
  "22045": {
    "lat": 29.606013,
    "lng": -91.842706,
    "name": "Iberia Parish",
    "state": "LA"
  },
  "22047": {
    "lat": 30.270658,
    "lng": -91.36587,
    "name": "Iberville Parish",
    "state": "LA"
  },
  "22049": {
    "lat": 32.30429,
    "lng": -92.5617,
    "name": "Jackson Parish",
    "state": "LA"
  },
  "22051": {
    "lat": 29.5033,
    "lng": -90.036231,
    "name": "Jefferson Parish",
    "state": "LA"
  },
  "22053": {
    "lat": 30.269529,
    "lng": -92.816221,
    "name": "Jefferson Davis Parish",
    "state": "LA"
  },
  "22055": {
    "lat": 30.206507,
    "lng": -92.06417,
    "name": "Lafayette Parish",
    "state": "LA"
  },
  "22057": {
    "lat": 29.491992,
    "lng": -90.394849,
    "name": "Lafourche Parish",
    "state": "LA"
  },
  "22059": {
    "lat": 31.680083,
    "lng": -92.161596,
    "name": "LaSalle Parish",
    "state": "LA"
  },
  "22061": {
    "lat": 32.601823,
    "lng": -92.662303,
    "name": "Lincoln Parish",
    "state": "LA"
  },
  "22063": {
    "lat": 30.440419,
    "lng": -90.727474,
    "name": "Livingston Parish",
    "state": "LA"
  },
  "22065": {
    "lat": 32.346878,
    "lng": -91.231932,
    "name": "Madison Parish",
    "state": "LA"
  },
  "22067": {
    "lat": 32.820008,
    "lng": -91.800399,
    "name": "Morehouse Parish",
    "state": "LA"
  },
  "22069": {
    "lat": 31.732509,
    "lng": -93.082546,
    "name": "Natchitoches Parish",
    "state": "LA"
  },
  "22071": {
    "lat": 30.05342,
    "lng": -89.934502,
    "name": "Orleans Parish",
    "state": "LA"
  },
  "22073": {
    "lat": 32.480932,
    "lng": -92.151581,
    "name": "Ouachita Parish",
    "state": "LA"
  },
  "22075": {
    "lat": 29.282447,
    "lng": -89.576068,
    "name": "Plaquemines Parish",
    "state": "LA"
  },
  "22077": {
    "lat": 30.708319,
    "lng": -91.604621,
    "name": "Pointe Coupee Parish",
    "state": "LA"
  },
  "22079": {
    "lat": 31.193204,
    "lng": -92.535953,
    "name": "Rapides Parish",
    "state": "LA"
  },
  "22081": {
    "lat": 32.101213,
    "lng": -93.34905,
    "name": "Red River Parish",
    "state": "LA"
  },
  "22083": {
    "lat": 32.413158,
    "lng": -91.748353,
    "name": "Richland Parish",
    "state": "LA"
  },
  "22085": {
    "lat": 31.560402,
    "lng": -93.559579,
    "name": "Sabine Parish",
    "state": "LA"
  },
  "22087": {
    "lat": 29.91811,
    "lng": -89.263494,
    "name": "St. Bernard Parish",
    "state": "LA"
  },
  "22089": {
    "lat": 29.905722,
    "lng": -90.357855,
    "name": "St. Charles Parish",
    "state": "LA"
  },
  "22091": {
    "lat": 30.822539,
    "lng": -90.708307,
    "name": "St. Helena Parish",
    "state": "LA"
  },
  "22093": {
    "lat": 30.024777,
    "lng": -90.793956,
    "name": "St. James Parish",
    "state": "LA"
  },
  "22095": {
    "lat": 30.144068,
    "lng": -90.49096,
    "name": "St. John the Baptist Parish",
    "state": "LA"
  },
  "22097": {
    "lat": 30.583441,
    "lng": -91.989274,
    "name": "St. Landry Parish",
    "state": "LA"
  },
  "22099": {
    "lat": 30.121433,
    "lng": -91.611481,
    "name": "St. Martin Parish",
    "state": "LA"
  },
  "22101": {
    "lat": 29.629349,
    "lng": -91.463804,
    "name": "St. Mary Parish",
    "state": "LA"
  },
  "22103": {
    "lat": 30.410022,
    "lng": -89.951962,
    "name": "St. Tammany Parish",
    "state": "LA"
  },
  "22105": {
    "lat": 30.621348,
    "lng": -90.40649,
    "name": "Tangipahoa Parish",
    "state": "LA"
  },
  "22107": {
    "lat": 32.001489,
    "lng": -91.342576,
    "name": "Tensas Parish",
    "state": "LA"
  },
  "22109": {
    "lat": 29.33413,
    "lng": -90.843674,
    "name": "Terrebonne Parish",
    "state": "LA"
  },
  "22111": {
    "lat": 32.829349,
    "lng": -92.37565,
    "name": "Union Parish",
    "state": "LA"
  },
  "22113": {
    "lat": 29.806638,
    "lng": -92.321394,
    "name": "Vermilion Parish",
    "state": "LA"
  },
  "22115": {
    "lat": 31.102841,
    "lng": -93.18833,
    "name": "Vernon Parish",
    "state": "LA"
  },
  "22117": {
    "lat": 30.852144,
    "lng": -90.046253,
    "name": "Washington Parish",
    "state": "LA"
  },
  "22119": {
    "lat": 32.732152,
    "lng": -93.339825,
    "name": "Webster Parish",
    "state": "LA"
  },
  "22121": {
    "lat": 30.464052,
    "lng": -91.309808,
    "name": "West Baton Rouge Parish",
    "state": "LA"
  },
  "22123": {
    "lat": 32.79248,
    "lng": -91.451998,
    "name": "West Carroll Parish",
    "state": "LA"
  },
  "22125": {
    "lat": 30.873364,
    "lng": -91.421776,
    "name": "West Feliciana Parish",
    "state": "LA"
  },
  "22127": {
    "lat": 31.941187,
    "lng": -92.641269,
    "name": "Winn Parish",
    "state": "LA"
  },
  "23001": {
    "lat": 44.167681,
    "lng": -70.207435,
    "name": "Androscoggin County",
    "state": "ME"
  },
  "23003": {
    "lat": 46.709193,
    "lng": -68.612409,
    "name": "Aroostook County",
    "state": "ME"
  },
  "23005": {
    "lat": 43.808348,
    "lng": -70.330375,
    "name": "Cumberland County",
    "state": "ME"
  },
  "23007": {
    "lat": 44.976724,
    "lng": -70.414935,
    "name": "Franklin County",
    "state": "ME"
  },
  "23009": {
    "lat": 44.564906,
    "lng": -68.370703,
    "name": "Hancock County",
    "state": "ME"
  },
  "23011": {
    "lat": 44.417012,
    "lng": -69.765764,
    "name": "Kennebec County",
    "state": "ME"
  },
  "23013": {
    "lat": 44.042045,
    "lng": -69.038514,
    "name": "Knox County",
    "state": "ME"
  },
  "23015": {
    "lat": 43.994781,
    "lng": -69.513624,
    "name": "Lincoln County",
    "state": "ME"
  },
  "23017": {
    "lat": 44.4945,
    "lng": -70.734421,
    "name": "Oxford County",
    "state": "ME"
  },
  "23019": {
    "lat": 45.409284,
    "lng": -68.666616,
    "name": "Penobscot County",
    "state": "ME"
  },
  "23021": {
    "lat": 45.915639,
    "lng": -69.102231,
    "name": "Piscataquis County",
    "state": "ME"
  },
  "23023": {
    "lat": 43.916845,
    "lng": -69.844227,
    "name": "Sagadahoc County",
    "state": "ME"
  },
  "23025": {
    "lat": 45.503646,
    "lng": -69.95611,
    "name": "Somerset County",
    "state": "ME"
  },
  "23027": {
    "lat": 44.475023,
    "lng": -69.117429,
    "name": "Waldo County",
    "state": "ME"
  },
  "23029": {
    "lat": 44.967009,
    "lng": -67.609354,
    "name": "Washington County",
    "state": "ME"
  },
  "23031": {
    "lat": 43.426019,
    "lng": -70.668425,
    "name": "York County",
    "state": "ME"
  },
  "24001": {
    "lat": 39.612313,
    "lng": -78.703104,
    "name": "Allegany County",
    "state": "MD"
  },
  "24003": {
    "lat": 38.991617,
    "lng": -76.560894,
    "name": "Anne Arundel County",
    "state": "MD"
  },
  "24005": {
    "lat": 39.443167,
    "lng": -76.616569,
    "name": "Baltimore County",
    "state": "MD"
  },
  "24009": {
    "lat": 38.522719,
    "lng": -76.529762,
    "name": "Calvert County",
    "state": "MD"
  },
  "24011": {
    "lat": 38.871531,
    "lng": -75.831662,
    "name": "Caroline County",
    "state": "MD"
  },
  "24013": {
    "lat": 39.563328,
    "lng": -77.01533,
    "name": "Carroll County",
    "state": "MD"
  },
  "24015": {
    "lat": 39.562354,
    "lng": -75.941585,
    "name": "Cecil County",
    "state": "MD"
  },
  "24017": {
    "lat": 38.472853,
    "lng": -77.015427,
    "name": "Charles County",
    "state": "MD"
  },
  "24019": {
    "lat": 38.429196,
    "lng": -76.047433,
    "name": "Dorchester County",
    "state": "MD"
  },
  "24021": {
    "lat": 39.470177,
    "lng": -77.397636,
    "name": "Frederick County",
    "state": "MD"
  },
  "24023": {
    "lat": 39.547299,
    "lng": -79.274619,
    "name": "Garrett County",
    "state": "MD"
  },
  "24025": {
    "lat": 39.537429,
    "lng": -76.299789,
    "name": "Harford County",
    "state": "MD"
  },
  "24027": {
    "lat": 39.252264,
    "lng": -76.924406,
    "name": "Howard County",
    "state": "MD"
  },
  "24029": {
    "lat": 39.241279,
    "lng": -76.125987,
    "name": "Kent County",
    "state": "MD"
  },
  "24031": {
    "lat": 39.137381,
    "lng": -77.203063,
    "name": "Montgomery County",
    "state": "MD"
  },
  "24033": {
    "lat": 38.829278,
    "lng": -76.848188,
    "name": "Prince George's County",
    "state": "MD"
  },
  "24035": {
    "lat": 39.040693,
    "lng": -76.082405,
    "name": "Queen Anne's County",
    "state": "MD"
  },
  "24037": {
    "lat": 38.223077,
    "lng": -76.534487,
    "name": "St. Mary's County",
    "state": "MD"
  },
  "24039": {
    "lat": 38.07445,
    "lng": -75.853323,
    "name": "Somerset County",
    "state": "MD"
  },
  "24041": {
    "lat": 38.748349,
    "lng": -76.178476,
    "name": "Talbot County",
    "state": "MD"
  },
  "24043": {
    "lat": 39.603621,
    "lng": -77.814671,
    "name": "Washington County",
    "state": "MD"
  },
  "24045": {
    "lat": 38.367368,
    "lng": -75.632084,
    "name": "Wicomico County",
    "state": "MD"
  },
  "24047": {
    "lat": 38.222133,
    "lng": -75.309931,
    "name": "Worcester County",
    "state": "MD"
  },
  "24510": {
    "lat": 39.300032,
    "lng": -76.610476,
    "name": "Baltimore city",
    "state": "MD"
  },
  "25001": {
    "lat": 41.706123,
    "lng": -70.164823,
    "name": "Barnstable County",
    "state": "MA"
  },
  "25003": {
    "lat": 42.371493,
    "lng": -73.217928,
    "name": "Berkshire County",
    "state": "MA"
  },